{"buildingList":{"buildings":[{"type":"ARCHIVES","code":"KORT","name":"Guldendelle","hasSAS":false,"contactList":{"contacts":[{"name":"Réception","phone":"+32229 99679"},{"name":"OIB PROXIMITY TEAM MERO","phone":"+32229 98853","email":"OIB-PROXIMITY-TEAM-MERO@ec.europa.eu"}]},"buildingAddress":{"streetAddress":"Jan Baptist Vinkstraat 2","postalCode":3070,"city":"Kortenberg","country":"Belgium","gpsCoordinates":{"latitude":50.886207,"longitude":4.519875}},"buildingOpeningHoursList":{"openingHours":{"daysOfWeek":[1,2,3,4,5,6,7,8,9,10,11,12,13,14],"startTime":"00:00","endTime":"00:00"}},"showerFacility":{"showersMen":1,"showersWomen":1,"showersMixed":0,"location":"Floor 0"}},{"type":"SPORTS","code":"OVER","name":"Overijse","photoLink":"OVER.jpg","occupantsNote":"OIB","hasSAS":false,"contactList":{"contacts":{"name":"OIB PROXIMITY TEAM MERO","phone":"+32229 98853","email":"OIB-PROXIMITY-TEAM-MERO@ec.europa.eu"}},"buildingAddress":{"streetAddress":"Dennenboslaan 54","postalCode":3090,"city":"Overijse","country":"Belgium","gpsCoordinates":{"latitude":50.736058,"longitude":4.525635}},"buildingOpeningHoursList":{"openingHours":[{"daysOfWeek":[1,2,3,4,5,8,9,10,11,12],"startTime":"07:00","endTime":"21:00"},{"daysOfWeek":[6,7,13,14],"startTime":"08:00","endTime":"21:00"}]},"parkingFacility":{"nonReservedCarPlaces":0,"serviceBicycles":0,"electricBicycles":0,"hasSAS":false,"parkingAddress":{"streetAddress":"Dennenboslaan, 54","postalCode":3090,"city":"Overijse","country":"Belgium","gpsCoordinates":{"latitude":50.736058,"longitude":4.525635}}}},{"type":"PARKING","code":"P-LO","name":"Parking LOI","hasSAS":false,"buildingAddress":{"streetAddress":"rue de la Loi, 19","city":"Technical city (migration)","country":"Technical country (migration)"}},{"type":"CHILDCARE","code":"PALM","name":"Palmerston","photoLink":"PALM.jpg","hasSAS":false,"contactList":{"contacts":[{"name":"Réception","phone":"+32229 65103"},{"name":"OIB PROXIMITY TEAM CRECHE","phone":"+32229 91712","email":"OIB-PROXIMITY-TEAM-CRECHES@ec.europa.eu"}]},"buildingAddress":{"streetAddress":"Avenue Palmerston 6-14","postalCode":1000,"city":"Bruxelles \/ Brussel","country":"Belgium","gpsCoordinates":{"latitude":50.847142,"longitude":4.380849}},"buildingOpeningHoursList":{"openingHours":[{"daysOfWeek":[1,2,3,4,8,9,10,11],"startTime":"09:00","endTime":"19:15"},{"daysOfWeek":[5,12],"startTime":"09:00","endTime":"18:30"}]}},{"type":"OFFICES","code":"LX40","name":"Luxembourg 40","photoLink":"LX40.jpg","occupants":"JUST","hasSAS":false,"contactList":{"contacts":[{"name":"Réception","phone":"+32229 50921"},{"name":"OIB PROXIMITY TEAM LX40","phone":"+32229 99955","email":"OIB-PROXIMITY-TEAM-LX40@ec.europa.eu"}]},"buildingAddress":{"streetAddress":"Rue du Luxembourg 40","postalCode":1000,"city":"Bruxelles \/ Brussel","country":"Belgium","gpsCoordinates":{"latitude":50.839664,"longitude":4.370767}},"buildingOpeningHoursList":{"openingHours":{"daysOfWeek":[1,2,3,4,5,8,9,10,11,12],"startTime":"07:00","endTime":"21:00"}},"parkingFacility":{"nonReservedCarPlaces":28,"serviceBicycles":3,"electricBicycles":0,"hasSAS":true,"parkingContact":{"phone":"+32229 73487"},"parkingOpeningHoursList":{"openingHours":{"daysOfWeek":[1,2,3,4,5,8,9,10,11,12],"startTime":"07:00","endTime":"21:00"}},"parkingAddress":{"streetAddress":"Rue Marie de Bourgogne, 20","postalCode":1000,"city":"Bruxelles \/ Brussel","country":"Belgium","gpsCoordinates":{"latitude":50.839857,"longitude":4.371162}}},"showerFacility":{"showersMen":0,"showersWomen":0,"showersMixed":1,"location":"Floor 0"}},{"type":"OFFICES","code":"J-70","name":"Emerald Court","photoLink":"J-70.jpg","occupants":"CDP-OSP, EAC, EACEA, OIB","hasSAS":false,"contactList":{"contacts":[{"name":"Réception","phone":"+32229 98824"},{"name":"OIB PROXIMITY TEAM J-70","phone":"+32229 95576","email":"OIB-PROXIMITY-TEAM-J-70@ec.europa.eu"}]},"buildingAddress":{"streetAddress":"Rue Joseph II 70","postalCode":1000,"city":"Bruxelles \/ Brussel","country":"Belgium","gpsCoordinates":{"latitude":50.845361,"longitude":4.374658}},"buildingOpeningHoursList":{"openingHours":{"daysOfWeek":[1,2,3,4,5,8,9,10,11,12],"startTime":"07:00","endTime":"21:00"}},"parkingFacility":{"nonReservedCarPlaces":146,"serviceBicycles":7,"electricBicycles":1,"hasSAS":false,"parkingContact":{"phone":"+32229 69432"},"parkingOpeningHoursList":{"openingHours":{"daysOfWeek":[1,2,3,4,5,8,9,10,11,12],"startTime":"07:00","endTime":"21:00"}},"parkingAddress":{"streetAddress":"Rue Joseph II, 70","postalCode":1000,"city":"Bruxelles \/ Brussel","country":"Belgium","gpsCoordinates":{"latitude":50.845361,"longitude":4.374658}}},"showerFacility":{"showersMen":1,"showersWomen":1,"showersMixed":0,"location":"Floor -1"},"cafeteriaFacility":{"contractor":"COMPASS","isClosed":false,"cafeteriaOpeningHoursList":{"openingHours":{"daysOfWeek":[1,2,3,4,5],"startTime":"08:30","endTime":"16:30"}}}},{"type":"OFFICES","code":"J-27","name":"Joseph II 27","photoLink":"J-27.jpg","occupants":"EMPL","hasSAS":false,"contactList":{"contacts":[{"name":"Réception","phone":"+32229 94434"},{"name":"OIB PROXIMITY TEAM J-30","phone":"+32229 95588","email":"OIB-PROXIMITY-TEAM-J-30@ec.europa.eu"}]},"buildingAddress":{"streetAddress":"Rue Joseph II 27","postalCode":1000,"city":"Bruxelles \/ Brussel","country":"Belgium","gpsCoordinates":{"latitude":50.845865,"longitude":4.371499}},"buildingOpeningHoursList":{"openingHours":{"daysOfWeek":[1,2,3,4,5,8,9,10,11,12],"startTime":"05:45","endTime":"22:15"}},"parkingFacility":{"nonReservedCarPlaces":152,"serviceBicycles":6,"electricBicycles":0,"hasSAS":false,"parkingContact":{"phone":"+32229 94286"},"parkingOpeningHoursList":{"openingHours":{"daysOfWeek":[1,2,3,4,5,8,9,10,11,12],"startTime":"07:00","endTime":"21:00"}},"parkingAddress":{"streetAddress":"Rue Joseph II, 31","postalCode":1000,"city":"Bruxelles \/ Brussel","country":"Belgium","gpsCoordinates":{"latitude":50.845811,"longitude":4.371759}}},"showerFacility":{"showersMen":0,"showersWomen":0,"showersMixed":1,"location":"Floor 0"},"cafeteriaFacility":{"contractor":"UNIJOLLY","isClosed":false,"cafeteriaOpeningHoursList":{"openingHours":{"daysOfWeek":[1,2,3,4,5],"startTime":"08:30","endTime":"16:30"}}}},{"type":"OFFICES","code":"C-25","name":"CAPITAL IMMEUBLE PARIS","photoLink":"C-25.jpg","occupants":"DIGIT, EPSO","hasSAS":false,"contactList":{"contacts":[{"name":"Réception","phone":"+32229 74188"},{"name":"OIB PROXIMITY TEAM PLB3","phone":"+32229 91717","email":"OIB-PROXIMITY-TEAM-PLB3@ec.europa.eu"}]},"buildingAddress":{"streetAddress":"Avenue de Cortenbergh 25","postalCode":1000,"city":"Bruxelles \/ Brussel","country":"Belgium","gpsCoordinates":{"latitude":50.843338,"longitude":4.386286}},"buildingOpeningHoursList":{"openingHours":{"daysOfWeek":[1,2,3,4,5,8,9,10,11,12],"startTime":"07:00","endTime":"21:00"}},"parkingFacility":{"nonReservedCarPlaces":32,"serviceBicycles":8,"electricBicycles":0,"hasSAS":false,"parkingContact":{"phone":"+32229 74196"},"parkingAddress":{"streetAddress":"Avenue de Cortenbergh, 21","postalCode":1000,"city":"Bruxelles \/ Brussel","country":"Belgium","gpsCoordinates":{"latitude":50.843173,"longitude":4.385913}}},"showerFacility":{"showersMen":0,"showersWomen":0,"showersMixed":3,"location":"Floors 2, 5 and 7"}},{"type":"OFFICES","code":"J-59","name":"City Garden","photoLink":"J-59.jpg","occupants":"EACEA","hasSAS":false,"contactList":{"contacts":[{"name":"Réception","phone":"+32229 74091"},{"name":"OIB PROXIMITY TEAM J-70","phone":"+32229 95576","email":"OIB-PROXIMITY-TEAM-J-70@ec.europa.eu"}]},"buildingAddress":{"streetAddress":"Rue Joseph II 59","postalCode":1000,"city":"Bruxelles \/ Brussel","country":"Belgium","gpsCoordinates":{"latitude":50.845297,"longitude":4.373935}},"buildingOpeningHoursList":{"openingHours":{"daysOfWeek":[1,2,3,4,5,8,9,10,11,12],"startTime":"07:00","endTime":"21:00"}},"parkingFacility":{"nonReservedCarPlaces":20,"serviceBicycles":4,"electricBicycles":0,"hasSAS":false,"parkingContact":{"phone":"+32229 77510"},"parkingOpeningHoursList":{"openingHours":{"daysOfWeek":[1,2,3,4,5,8,9,10,11,12],"startTime":"07:00","endTime":"21:00"}},"parkingAddress":{"streetAddress":"Rue Joseph II, 59","postalCode":1000,"city":"Bruxelles \/ Brussel","country":"Belgium","gpsCoordinates":{"latitude":50.845434,"longitude":4.373529}}},"showerFacility":{"showersMen":0,"showersWomen":0,"showersMixed":1,"location":"Floor 0"}},{"type":"OFFICES","code":"T-22","name":"Treurenberg","hasSAS":false,"buildingAddress":{"streetAddress":"Treurenberg 22","postalCode":1000,"city":"Bruxelles \/ Brussel","country":"Belgium","gpsCoordinates":{"latitude":50.847804,"longitude":4.362105}},"buildingOpeningHoursList":{"openingHours":{"daysOfWeek":[1,2,3,4,5,6,7,8,9,10,11,12,13,14],"startTime":"00:00","endTime":"00:00"}},"parkingFacility":{"nonReservedCarPlaces":53,"serviceBicycles":0,"electricBicycles":0,"hasSAS":false,"parkingOpeningHoursList":{"openingHours":{"daysOfWeek":[1,2,3,4,5,8,9,10,11,12],"startTime":"07:00","endTime":"20:00"}},"parkingAddress":{"streetAddress":"place de Louvain","postalCode":1000,"city":"Bruxelles \/ Brussel","country":"Belgium","gpsCoordinates":{"latitude":50.848021,"longitude":4.362427}}},"cafeteriaFacility":{"contractor":"CIANO","isClosed":false,"cafeteriaOpeningHoursList":{"openingHours":{"daysOfWeek":[1,2,3,4,5],"startTime":"08:30","endTime":"15:30"}}}},{"type":"CHILDCARE","code":"WALI","name":"WAGON-LITS","photoLink":"WALI.jpg","occupants":"OIB","hasSAS":false,"contactList":{"contacts":[{"name":"Réception","phone":"+32229 91407"},{"name":"OIB PROXIMITY TEAM CRECHE","phone":"+32229 91712","email":"OIB-PROXIMITY-TEAM-CRECHES@ec.europa.eu"}]},"buildingAddress":{"streetAddress":"boulevard Clovis, 53","postalCode":1000,"city":"Bruxelles \/ Brussel","country":"Belgium","gpsCoordinates":{"latitude":50.849506,"longitude":4.381296}},"showerFacility":{"showersMen":0,"showersWomen":0,"showersMixed":2,"location":"Floors 2 and 3"}},{"type":"OFFICES","code":"SPA3","name":"Parc Avenue","photoLink":"SPA3.jpg","occupants":"EMPL, TAXUD","hasSAS":false,"contactList":{"contacts":[{"name":"Réception","phone":"+32229 96474"},{"name":"OIB PROXIMITY TEAM J-99","phone":"+32229 95577","email":"OIB-PROXIMITY-TEAM-J-99@ec.europa.eu"}]},"buildingAddress":{"streetAddress":"Rue de Spa 3","postalCode":1000,"city":"Bruxelles \/ Brussel","country":"Belgium","gpsCoordinates":{"latitude":50.845129,"longitude":4.37404}},"buildingOpeningHoursList":{"openingHours":{"daysOfWeek":[1,2,3,4,5,8,9,10,11,12],"startTime":"07:00","endTime":"20:00"}},"parkingFacility":{"nonReservedCarPlaces":28,"serviceBicycles":3,"electricBicycles":0,"hasSAS":false,"parkingContact":{"phone":"+32229 96507"},"parkingOpeningHoursList":{"openingHours":{"daysOfWeek":[1,2,3,4,5,8,9,10,11,12],"startTime":"07:00","endTime":"20:00"}},"parkingAddress":{"streetAddress":"Rue Joseph II, 71","postalCode":1000,"city":"Bruxelles \/ Brussel","country":"Belgium","gpsCoordinates":{"latitude":50.845206,"longitude":4.374433}}},"showerFacility":{"showersMen":2,"showersWomen":2,"showersMixed":0,"location":"Floor -1"}},{"type":"OFFICES","code":"BERL","name":"Berlaymont","photoLink":"BERL.jpg","occupants":"COLLÈGE, COMM, DIGIT, EPSC, HR, OIB, SG, SJ, TF50","hasSAS":false,"contactList":{"contacts":[{"name":"Réception","phone":"+32229 52426"},{"name":"OIB PROXIMITY TEAM BERL","phone":"+32229 95578","email":"OIB-PROXIMITY-TEAM-BERL@ec.europa.eu"}]},"buildingAddress":{"streetAddress":"Rue de la Loi 200","postalCode":1000,"city":"Bruxelles \/ Brussel","country":"Belgium","gpsCoordinates":{"latitude":50.843598,"longitude":4.382174}},"buildingOpeningHoursList":{"openingHours":{"daysOfWeek":[1,2,3,4,5,6,7,8,9,10,11,12,13,14],"startTime":"00:00","endTime":"00:00"}},"parkingFacility":{"nonReservedCarPlaces":587,"serviceBicycles":13,"electricBicycles":1,"hasSAS":true,"parkingContact":{"phone":"+32229 96281"},"parkingOpeningHoursList":{"openingHours":{"daysOfWeek":[1,2,3,4,5,6,7,8,9,10,11,12,13,14],"startTime":"00:00","endTime":"00:00"}},"parkingAddress":{"streetAddress":"Rue Stévin (au rond point)","postalCode":1000,"city":"Bruxelles \/ Brussel","country":"Belgium","gpsCoordinates":{"latitude":50.84437,"longitude":4.381959}}},"showerFacility":{"showersMen":7,"showersWomen":7,"showersMixed":0,"location":"Floors -1 and 1"},"cafeteriaFacility":{"contractor":"CIANO","isClosed":false,"cafeteriaOpeningHoursList":{"openingHours":{"daysOfWeek":[1,2,3,4,5],"startTime":"08:30","endTime":"17:00"}}},"canteenFacility":{"contractor":"CIANO","isClosed":false,"canteenOpeningHoursList":{"openingHours":{"daysOfWeek":[1,2,3,4,5],"startTime":"12:00","endTime":"14:15"}},"canteenMenu":{"soup":"Provençal soup with fish","meal1":"Net whiting fillet , Vichy carrots, mashed potatoes, cream with dill","meal1Kcal":472,"meal2":"Osso bucco of turkey and its gremolata, tagliatelle","meal2Kcal":541,"vegetarian":"(Fit@work) Slice of tofu, coconut sate sauce, wok vegetables, rice\n","vegetarianKcal":660}}},{"type":"OFFICES","code":"PLB3","name":"Livingstone II","photoLink":"PLB3.jpg","occupants":"HR","hasSAS":false,"contactList":{"contacts":[{"name":"Réception","phone":"+32229 73569"},{"name":"OIB PROXIMITY TEAM PLB3","phone":"+32229 91717","email":"OIB-PROXIMITY-TEAM-PLB3@ec.europa.eu"}]},"buildingAddress":{"streetAddress":"Rue Philippe Lebon 1-3","postalCode":1000,"city":"Bruxelles \/ Brussel","country":"Belgium","gpsCoordinates":{"latitude":50.845361,"longitude":4.376003}},"buildingOpeningHoursList":{"openingHours":{"daysOfWeek":[1,2,3,4,5,8,9,10,11,12],"startTime":"05:45","endTime":"20:45"}},"parkingFacility":{"nonReservedCarPlaces":184,"serviceBicycles":4,"electricBicycles":0,"hasSAS":false,"parkingContact":{"phone":"+32229 73583"},"parkingOpeningHoursList":{"openingHours":{"daysOfWeek":[1,2,3,4,5,8,9,10,11,12],"startTime":"07:00","endTime":"20:00"}},"parkingAddress":{"streetAddress":"rue Joseph II, 96","postalCode":1000,"city":"Bruxelles \/ Brussel","country":"Belgium","gpsCoordinates":{"latitude":50.844893,"longitude":4.376797}}},"showerFacility":{"showersMen":1,"showersWomen":1,"showersMixed":0,"location":"Floor -1"},"cafeteriaFacility":{"contractor":"CIANO","isClosed":false,"cafeteriaOpeningHoursList":{"openingHours":{"daysOfWeek":[1,2,3,4,5],"startTime":"08:00","endTime":"16:00"}}},"canteenFacility":{"contractor":"CIANO","isClosed":false,"canteenOpeningHoursList":{"openingHours":{"daysOfWeek":[1,2,3,4,5],"startTime":"12:00","endTime":"14:15"}},"canteenMenu":{"soup":"Provençal soup with fish","meal1":"Net whiting fillet , Vichy carrots, mashed potatoes, cream with dill","meal1Kcal":472,"meal2":"Osso bucco of turkey and its gremolata, tagliatelle","meal2Kcal":541,"vegetarian":"(Fit@work) Slice of tofu, coconut sate sauce, wok vegetables, rice\n","vegetarianKcal":660}}},{"type":"CHILDCARE","code":"CLOV","name":"Crèche Clovis","photoLink":"CLOV.jpg","occupants":"OIB","hasSAS":false,"contactList":{"contacts":[{"name":"Réception","phone":"+32229 91407"},{"name":"OIB PROXIMITY TEAM CRECHE","phone":"+32229 91712","email":"OIB-PROXIMITY-TEAM-CRECHES@ec.europa.eu"}]},"buildingAddress":{"streetAddress":"Boulevard Clovis 75-79","postalCode":1000,"city":"Bruxelles \/ Brussel","country":"Belgium","gpsCoordinates":{"latitude":50.849924,"longitude":4.381027}},"buildingOpeningHoursList":{"openingHours":{"daysOfWeek":[1,2,3,4,5,8,9,10,11,12],"startTime":"07:00","endTime":"22:00"}},"parkingFacility":{"nonReservedCarPlaces":41,"serviceBicycles":2,"electricBicycles":0,"hasSAS":false,"parkingContact":{"phone":"+32229 91461"},"parkingOpeningHoursList":{"openingHours":{"daysOfWeek":[1,2,3,4,5,8,9,10,11,12],"startTime":"07:00","endTime":"19:00"}},"parkingAddress":{"streetAddress":"Boulevard Clovis, 75-79 1000 Brussels","postalCode":1000,"city":"Bruxelles \/ Brussel","country":"Belgium","gpsCoordinates":{"latitude":50.849728,"longitude":4.381223}}},"showerFacility":{"showersMen":0,"showersWomen":0,"showersMixed":2,"location":"Floor -1"}},{"type":"OFFICES","code":"J-99","name":"Joseph II 99","photoLink":"J-99.jpg","occupants":"MARE","hasSAS":false,"contactList":{"contacts":[{"name":"Réception","phone":"+32229 64957"},{"name":"OIB PROXIMITY TEAM J-99","phone":"+32229 29 95577","email":"OIB-PROXIMITY-TEAM-J-99@ec.europa.eu"}]},"buildingAddress":{"streetAddress":"Rue Joseph II 99","postalCode":1000,"city":"Bruxelles \/ Brussel","country":"Belgium","gpsCoordinates":{"latitude":50.844909,"longitude":4.375999}},"buildingOpeningHoursList":{"openingHours":{"daysOfWeek":[1,2,3,4,5,8,9,10,11,12],"startTime":"07:00","endTime":"21:00"}},"parkingFacility":{"nonReservedCarPlaces":100,"serviceBicycles":8,"electricBicycles":0,"hasSAS":false,"parkingContact":{"phone":"+32229 64609"},"parkingOpeningHoursList":{"openingHours":{"daysOfWeek":[1,2,3,4,5,8,9,10,11,12],"startTime":"07:00","endTime":"21:00"}},"parkingAddress":{"streetAddress":"Rue Joseph II, 73\/75 et 79","postalCode":1000,"city":"Bruxelles \/ Brussel","country":"Belgium","gpsCoordinates":{"latitude":50.844858,"longitude":4.376195}}},"showerFacility":{"showersMen":1,"showersWomen":1,"showersMixed":0,"location":"Floors 0 and 1"}},{"type":"OFFICES","code":"MO34","name":"Montoyer  34","photoLink":"MO34.jpg","occupants":"DIGIT, HR, PMO","hasSAS":false,"contactList":{"contacts":[{"name":"Réception","phone":"+32229 53003"},{"name":"OIB PROXIMITY TEAM SC11","phone":"+32229 91714","email":"OIB-PROXIMITY-TEAM-SC11@ec.europa.eu"}]},"buildingAddress":{"streetAddress":"Rue Montoyer 34","postalCode":1000,"city":"Bruxelles \/ Brussel","country":"Belgium","gpsCoordinates":{"latitude":50.841107,"longitude":4.370854}},"buildingOpeningHoursList":{"openingHours":{"daysOfWeek":[1,2,3,4,5,8,9,10,11,12],"startTime":"05:30","endTime":"22:15"}},"parkingFacility":{"nonReservedCarPlaces":194,"serviceBicycles":4,"electricBicycles":0,"hasSAS":true,"parkingContact":{"phone":"+32229 61790"},"parkingOpeningHoursList":{"openingHours":{"daysOfWeek":[1,2,3,4,5,8,9,10,11,12],"startTime":"07:00","endTime":"22:00"}},"parkingAddress":{"streetAddress":"Rue de la Science, 7","postalCode":1000,"city":"Bruxelles \/ Brussel","country":"Belgium","gpsCoordinates":{"latitude":50.841485,"longitude":4.370926}}},"showerFacility":{"showersMen":0,"showersWomen":0,"showersMixed":1,"location":"Floor 6"},"canteenFacility":{"contractor":"UNIJOLLY","isClosed":false,"canteenOpeningHoursList":{"openingHours":{"daysOfWeek":[1,2,3,4,5],"startTime":"12:00","endTime":"14:15"}},"canteenMenu":{"soup":"Provençal soup with fish","meal1":"Net whiting fillet , Vichy carrots, mashed potatoes, cream with dill","meal1Kcal":472,"meal2":"Osso bucco of turkey and its gremolata, tagliatelle","meal2Kcal":541,"vegetarian":"(Fit@work) Slice of tofu, coconut sate sauce, wok vegetables, rice\n","vegetarianKcal":660}}},{"type":"OFFICES","code":"MO59","name":"Montoyer 59","photoLink":"MO59.jpg","occupants":"JUST","hasSAS":false,"contactList":{"contacts":[{"name":"Réception","phone":"+32229 58802"},{"name":"OIB PROXIMITY TEAM LX40","phone":"+32229 99955","email":"OIB-PROXIMITY-TEAM-LX40@ec.europa.eu"}]},"buildingAddress":{"streetAddress":"Rue Montoyer 59","postalCode":1000,"city":"Bruxelles \/ Brussel","country":"Belgium","gpsCoordinates":{"latitude":50.840728,"longitude":4.371977}},"buildingOpeningHoursList":{"openingHours":{"daysOfWeek":[1,2,3,4,5,8,9,10,11,12],"startTime":"07:00","endTime":"21:00"}},"parkingFacility":{"nonReservedCarPlaces":38,"serviceBicycles":0,"electricBicycles":0,"hasSAS":false,"parkingContact":{"phone":"+32229 91213"},"parkingAddress":{"streetAddress":"Rue Montoyer, 59","postalCode":1000,"city":"Bruxelles \/ Brussel","country":"Belgium","gpsCoordinates":{"latitude":50.840692,"longitude":4.372133}}},"cafeteriaFacility":{"contractor":"UNIJOLLY","isClosed":false,"cafeteriaOpeningHoursList":{"openingHours":{"daysOfWeek":[1,2,3,4,5],"startTime":"08:30","endTime":"16:00"}}}},{"type":"CHILDCARE","code":"WILS","name":"Garderie Wilson","photoLink":"WILS.jpg","hasSAS":false,"contactList":{"contacts":[{"name":"Réception","phone":"+32229 56418"},{"name":"OIB PROXIMITY TEAM CRECHE","phone":"+32229 91712","email":"OIB-PROXIMITY-TEAM-CRECHES@ec.europa.eu"}]},"buildingAddress":{"streetAddress":"Rue Wilson, 16-24","postalCode":1000,"city":"Bruxelles \/ Brussel","country":"Belgium","gpsCoordinates":{"latitude":50.849468,"longitude":4.380048}},"buildingOpeningHoursList":{"openingHours":{"daysOfWeek":[1,2,3,4,5,8,9,10,11,12],"startTime":"07:00","endTime":"19:00"}}},{"type":"OFFICES","code":"J-30","name":"Brittania","photoLink":"J-30.jpg","occupants":"HR, OLAF","hasSAS":false,"contactList":{"contacts":[{"name":"Réception","phone":"+32229 95944"},{"name":"OIB PROXIMITY TEAM J-30","phone":"+32229 95588","email":"OIB-PROXIMITY-TEAM-J-30@ec.europa.eu"}]},"buildingAddress":{"streetAddress":"Rue Joseph II 30","postalCode":1000,"city":"Bruxelles \/ Brussel","country":"Belgium","gpsCoordinates":{"latitude":50.846207,"longitude":4.371232}},"buildingOpeningHoursList":{"openingHours":{"daysOfWeek":[1,2,3,4,5,8,9,10,11,12],"startTime":"07:00","endTime":"21:00"}},"parkingFacility":{"nonReservedCarPlaces":139,"serviceBicycles":3,"electricBicycles":0,"hasSAS":false,"parkingContact":{"phone":"+32229 96266"},"parkingOpeningHoursList":{"openingHours":{"daysOfWeek":[1,2,3,4,5,8,9,10,11,12],"startTime":"07:00","endTime":"21:00"}},"parkingAddress":{"streetAddress":"Rue Marie Thérèse","postalCode":1000,"city":"Bruxelles \/ Brussel","country":"Belgium","gpsCoordinates":{"latitude":50.846441,"longitude":4.371616}}},"showerFacility":{"showersMen":2,"showersWomen":2,"showersMixed":1,"location":"Floor 0"},"cafeteriaFacility":{"contractor":"UNIJOLLY","isClosed":false,"cafeteriaOpeningHoursList":{"openingHours":{"daysOfWeek":[1,2,3,4,5],"startTime":"08:30","endTime":"16:30"}}}},{"type":"OFFICES","code":"J-54","name":"Joseph II 54","photoLink":"J-54.jpg","occupants":"DEVCO, EMPL, NEAR, OIB","hasSAS":false,"contactList":{"contacts":[{"name":"Réception","phone":"+32229 98868"},{"name":"OIB PROXIMITY TEAM J-70","phone":"+32229 95576","email":"OIB-PROXIMITY-TEAM-J-70@ec.europa.eu"}]},"buildingAddress":{"streetAddress":"Rue Joseph II 54","postalCode":1000,"city":"Bruxelles \/ Brussel","country":"Belgium","gpsCoordinates":{"latitude":50.845655,"longitude":4.373298}},"buildingOpeningHoursList":{"openingHours":[{"daysOfWeek":[1,2,3,4,5,8,9,10,11,12],"startTime":"07:00","endTime":"21:00"},{"daysOfWeek":[6,13],"startTime":"09:00","endTime":"18:00"}]},"parkingFacility":{"nonReservedCarPlaces":43,"serviceBicycles":3,"electricBicycles":0,"hasSAS":false,"parkingContact":{"phone":"+32229 95170"},"parkingOpeningHoursList":{"openingHours":{"daysOfWeek":[1,2,3,4,5,8,9,10,11,12],"startTime":"07:00","endTime":"21:00"}},"parkingAddress":{"streetAddress":"Rue Joseph II, 54","postalCode":1000,"city":"Bruxelles \/ Brussel","country":"Belgium","gpsCoordinates":{"latitude":50.845539,"longitude":4.373888}}},"showerFacility":{"showersMen":2,"showersWomen":2,"showersMixed":0,"location":"Floor -2"},"cafeteriaFacility":{"contractor":"CIANO","isClosed":false,"cafeteriaOpeningHoursList":{"openingHours":{"daysOfWeek":[1,2,3,4,5],"startTime":"08:30","endTime":"16:30"}}}},{"type":"INFORMATION POINT","code":"RP14","name":"Info Point","photoLink":"RP14.jpg","hasSAS":false,"contactList":{"contacts":{"name":"Réception"}},"buildingAddress":{"streetAddress":"Rond-Point Robert Schuman 14","postalCode":1000,"city":"Bruxelles \/ Brussel","country":"Belgium","gpsCoordinates":{"latitude":50.842887,"longitude":4.383988}}},{"type":"OFFICES","code":"J-79","name":"Eudip-Three","photoLink":"J-79.jpg","occupants":"MARE, TAXUD","hasSAS":false,"contactList":{"contacts":[{"name":"Réception","phone":"+32229 57434"},{"name":"OIB PROXIMITY TEAM J-99","phone":"+32229 95577","email":"OIB-PROXIMITY-TEAM-J-99@ec.europa.eu"}]},"buildingAddress":{"streetAddress":"Rue Joseph II 79","postalCode":1000,"city":"Bruxelles \/ Brussel","country":"Belgium","gpsCoordinates":{"latitude":50.84504,"longitude":4.375311}},"buildingOpeningHoursList":{"openingHours":{"daysOfWeek":[1,2,3,4,5,8,9,10,11,12],"startTime":"07:00","endTime":"21:00"}},"parkingFacility":{"nonReservedCarPlaces":62,"serviceBicycles":0,"electricBicycles":0,"hasSAS":false,"parkingContact":{"phone":"+32229 57486"},"parkingOpeningHoursList":{"openingHours":{"daysOfWeek":[1,2,3,4,5,8,9,10,11,12],"startTime":"07:00","endTime":"21:00"}},"parkingAddress":{"streetAddress":"Rue Joseph II, 73\/75 et 79","postalCode":1000,"city":"Bruxelles \/ Brussel","country":"Belgium","gpsCoordinates":{"latitude":50.845023,"longitude":4.375496}}},"showerFacility":{"showersMen":2,"showersWomen":2,"showersMixed":0,"location":"Floor 0"},"cafeteriaFacility":{"contractor":"CIANO","isClosed":false,"cafeteriaOpeningHoursList":{"openingHours":{"daysOfWeek":[1,2,3,4,5],"startTime":"08:30","endTime":"16:30"}}}},{"type":"OFFICES","code":"L-56","name":"Loi 56","photoLink":"L-56.jpg","occupants":"COMM","hasSAS":false,"contactList":{"contacts":[{"name":"Réception","phone":"+32229 58099"},{"name":"OIB PROXIMITY TEAM J-99","phone":"+32229 95577","email":"OIB-PROXIMITY-TEAM-J-99@ec.europa.eu"}]},"buildingAddress":{"streetAddress":"Rue de la Loi 56","postalCode":1000,"city":"Bruxelles \/ Brussel","country":"Belgium","gpsCoordinates":{"latitude":50.844986,"longitude":4.371876}},"buildingOpeningHoursList":{"openingHours":{"daysOfWeek":[1,2,3,4,5,8,9,10,11,12],"startTime":"07:00","endTime":"22:00"}},"parkingFacility":{"nonReservedCarPlaces":52,"serviceBicycles":5,"electricBicycles":0,"hasSAS":false,"parkingContact":{"phone":"+32229 68856"},"parkingOpeningHoursList":{"openingHours":{"daysOfWeek":[1,2,3,4,5,8,9,10,11,12],"startTime":"07:00","endTime":"20:30"}},"parkingAddress":{"streetAddress":"Rue des deux Eglises, 2","postalCode":1000,"city":"Bruxelles \/ Brussel","country":"Belgium","gpsCoordinates":{"latitude":50.845414,"longitude":4.372158}}},"showerFacility":{"showersMen":1,"showersWomen":1,"showersMixed":0,"location":"Floor -1"}},{"type":"OFFICES","code":"SPA2","name":"The Pavilion","photoLink":"SPA2.jpg","occupants":"EACEA, FISMA","hasSAS":false,"contactList":{"contacts":[{"name":"Réception","phone":"+32229 97689"},{"name":"OIB PROXIMITY TEAM J-70","phone":"+32229 95576","email":"OIB-PROXIMITY-TEAM-J-70@ec.europa.eu"}]},"buildingAddress":{"streetAddress":"rue de spa 2","postalCode":1000,"city":"Bruxelles \/ Brussel","country":"Belgium","gpsCoordinates":{"latitude":50.844931,"longitude":4.373765}},"buildingOpeningHoursList":{"openingHours":[{"daysOfWeek":[1,2,3,4,5,8,9,10,11,12],"startTime":"07:00","endTime":"21:00"},{"daysOfWeek":[6,7,13,14],"startTime":"09:00","endTime":"16:00"}]},"parkingFacility":{"nonReservedCarPlaces":64,"serviceBicycles":6,"electricBicycles":0,"hasSAS":false,"parkingContact":{"phone":"+32229 85842"},"parkingOpeningHoursList":{"openingHours":{"daysOfWeek":[1,2,3,4,5,8,9,10,11,12],"startTime":"07:00","endTime":"21:00"}},"parkingAddress":{"streetAddress":"Rue Joseph II, 57","postalCode":1000,"city":"Bruxelles \/ Brussel","country":"Belgium","gpsCoordinates":{"latitude":50.845468,"longitude":4.373441}}},"showerFacility":{"showersMen":2,"showersWomen":2,"showersMixed":0,"location":"Floor -2"},"cafeteriaFacility":{"contractor":"CIANO","isClosed":false,"cafeteriaOpeningHoursList":{"openingHours":{"daysOfWeek":[1,2,3,4,5],"startTime":"08:30","endTime":"16:30"}}}},{"type":"OFFICES","code":"MO15","name":"BLACK PEARL","photoLink":"MO15.jpg","occupants":"DIGIT","hasSAS":false,"contactList":{"contacts":[{"name":"Réception","phone":"+32 229 77103"},{"name":"OIB PROXIMITY TEAM SC11","phone":"+32229 91714","email":"OIB-PROXIMITY-TEAM-SC11@ec.europa.eu"}]},"buildingAddress":{"streetAddress":"15, rue Montoyer","postalCode":1000,"city":"Bruxelles \/ Brussel","country":"Belgium","gpsCoordinates":{"latitude":50.841475,"longitude":4.36847}},"buildingOpeningHoursList":{"openingHours":{"daysOfWeek":[1,2,3,4,5,8,9,10,11,12],"startTime":"07:00","endTime":"21:00"}},"parkingFacility":{"nonReservedCarPlaces":27,"serviceBicycles":4,"electricBicycles":0,"hasSAS":false,"parkingContact":{"phone":"+32 229 77120"},"parkingOpeningHoursList":{"openingHours":{"daysOfWeek":[1,2,3,4,5,8,9,10,11,12],"startTime":"07:00","endTime":"21:00"}},"parkingAddress":{"streetAddress":"15, rue Montoyer 1000 Brussels","postalCode":1000,"city":"Bruxelles \/ Brussel","country":"Belgium","gpsCoordinates":{"latitude":50.841455,"longitude":4.368543}}},"showerFacility":{"showersMen":0,"showersWomen":0,"showersMixed":5,"location":"Floor -2"},"cafeteriaFacility":{"contractor":"CIANO","isClosed":false,"cafeteriaOpeningHoursList":{"openingHours":{"daysOfWeek":[1,2,3,4,5],"startTime":"08:30","endTime":"16:30"}}}},{"type":"OFFICES","code":"B-28","name":"Belliard 28","photoLink":"B-28.jpg","occupants":"DIGIT, RTD","hasSAS":false,"contactList":{"contacts":[{"name":"Réception","phone":"+32229 96097"},{"name":"OIB PROXIMITY TEAM SC11","phone":"+32229 91714","email":"OIB-PROXIMITY-TEAM-SC11@ec.europa.eu"}]},"buildingAddress":{"streetAddress":"Rue Belliard 28","postalCode":1000,"city":"Bruxelles \/ Brussel","country":"Belgium","gpsCoordinates":{"latitude":50.842185,"longitude":4.370591}},"buildingOpeningHoursList":{"openingHours":{"daysOfWeek":[1,2,3,4,5,8,9,10,11,12],"startTime":"06:30","endTime":"21:00"}},"parkingFacility":{"nonReservedCarPlaces":113,"serviceBicycles":4,"electricBicycles":0,"hasSAS":false,"parkingContact":{"phone":"+32229 96059"},"parkingOpeningHoursList":{"openingHours":{"daysOfWeek":[1,2,3,4,5,8,9,10,11,12],"startTime":"06:30","endTime":"21:00"}},"parkingAddress":{"streetAddress":"Rue de l'Industrie, 27","postalCode":1000,"city":"Bruxelles \/ Brussel","country":"Belgium","gpsCoordinates":{"latitude":50.842744,"longitude":4.370184}}},"showerFacility":{"showersMen":2,"showersWomen":2,"showersMixed":0,"location":"Floor -1"},"cafeteriaFacility":{"contractor":"COMPASS","isClosed":false,"cafeteriaOpeningHoursList":{"openingHours":{"daysOfWeek":[1,2,3,4,5],"startTime":"08:30","endTime":"16:00"}}}},{"type":"CONFERENCE CENTRE","code":"CCAB","name":"Centre De Conférences Albert Borschette","photoLink":"CCAB.jpg","hasSAS":false,"contactList":{"contacts":[{"name":"Réception","phone":"+32229 58700"},{"name":"OIB PROXIMITY TEAM DM28","phone":"+32229 95552","email":"OIB-PROXIMITY-TEAM-DM28@ec.europa.eu"}]},"buildingAddress":{"streetAddress":"Rue Froissart 36","postalCode":1040,"city":"Etterbeek","country":"Belgium","gpsCoordinates":{"latitude":50.838061,"longitude":4.38157}},"buildingOpeningHoursList":{"openingHours":[{"daysOfWeek":[6,13],"startTime":"08:00","endTime":"18:00"},{"daysOfWeek":[1,2,3,4,5,8,9,10,11,12],"startTime":"06:00","endTime":"22:00"}]},"parkingFacility":{"nonReservedCarPlaces":4,"serviceBicycles":2,"electricBicycles":0,"hasSAS":false,"parkingContact":{"phone":"+32229 58751"},"parkingOpeningHoursList":{"openingHours":{"daysOfWeek":[1,2,3,4,5,8,9,10,11,12],"startTime":"07:00","endTime":"21:00"}},"parkingAddress":{"streetAddress":"Chaussée d’Etterbeek, 222 1040 Etterbeek","postalCode":1040,"city":"Etterbeek","country":"Belgium","gpsCoordinates":{"latitude":50.838093,"longitude":4.380803}}},"showerFacility":{"showersMen":1,"showersWomen":1,"showersMixed":0,"location":"Floor -1"},"cafeteriaFacility":{"contractor":"UNIJOLLY","isClosed":false,"cafeteriaOpeningHoursList":{"openingHours":{"daysOfWeek":[1,2,3,4,5],"startTime":"08:30","endTime":"16:00"}}}},{"type":"OFFICES","code":"BLS2","name":"Espace Rolin (Bloc A)","occupants":"INEA","hasSAS":false,"buildingAddress":{"streetAddress":"Boulevard Louis Schmidt 2","postalCode":1040,"city":"Etterbeek","country":"Belgium"}},{"type":"OFFICES","code":"MERO","name":"MERODE","photoLink":"MERO.jpg","occupants":"HR\/VP, PMO","hasSAS":false,"contactList":{"contacts":[{"name":"Réception","phone":"+32229 77130"},{"name":"OIB PROXIMITY TEAM MERO","phone":"+32229 98853","email":"OIB-PROXIMITY-TEAM-MERO@ec.europa.eu"}]},"buildingAddress":{"streetAddress":"41, avenue de Tervueren","postalCode":1040,"city":"Etterbeek","country":"Belgium","gpsCoordinates":{"latitude":50.838119,"longitude":4.400246}},"buildingOpeningHoursList":{"openingHours":{"daysOfWeek":[1,2,3,4,5,8,9,10,11,12],"startTime":"06:30","endTime":"20:00"}},"parkingFacility":{"nonReservedCarPlaces":125,"serviceBicycles":0,"electricBicycles":0,"hasSAS":false,"parkingContact":{"phone":"+32229 72694"},"parkingOpeningHoursList":{"openingHours":{"daysOfWeek":[1,2,3,4,5,8,9,10,11,12],"startTime":"07:00","endTime":"20:00"}},"parkingAddress":{"streetAddress":"rue Père de Deken, 3 1040 Etterbeek","postalCode":1040,"city":"Etterbeek","country":"Belgium","gpsCoordinates":{"latitude":50.838332,"longitude":4.400573}}},"cafeteriaFacility":{"contractor":"COMPASS","isClosed":false,"cafeteriaOpeningHoursList":{"openingHours":{"daysOfWeek":[1,2,3,4,5],"startTime":"08:30","endTime":"16:00"}}}},{"type":"OFFICES","code":"LX46","name":"Luxembourg 46","photoLink":"LX46.jpg","occupants":"HOME","hasSAS":false,"contactList":{"contacts":[{"name":"Réception","phone":"+32229 55529"},{"name":"OIB PROXIMITY TEAM LX40","phone":"+32229 99955","email":"OIB-PROXIMITY-TEAM-LX40@ec.europa.eu"}]},"buildingAddress":{"streetAddress":"Rue du Luxembourg 46","postalCode":1040,"city":"Etterbeek","country":"Belgium","gpsCoordinates":{"latitude":50.839487,"longitude":4.371584}},"buildingOpeningHoursList":{"openingHours":[{"daysOfWeek":[1,2,3,4,5,8,9,10,11,12],"startTime":"07:00","endTime":"21:00"},{"daysOfWeek":[6,7,13,14],"startTime":"09:00","endTime":"18:00"}]},"parkingFacility":{"nonReservedCarPlaces":187,"serviceBicycles":5,"electricBicycles":0,"hasSAS":false,"parkingContact":{"phone":"+32229 74739"},"parkingOpeningHoursList":{"openingHours":{"daysOfWeek":[1,2,3,4,5,8,9,10,11,12],"startTime":"07:00","endTime":"20:00"}},"parkingAddress":{"streetAddress":"Rue d’Arlon, 50","postalCode":1040,"city":"Etterbeek","country":"Belgium","gpsCoordinates":{"latitude":50.840076,"longitude":4.372488}}},"showerFacility":{"showersMen":1,"showersWomen":1,"showersMixed":0,"location":"Floor 0"}},{"type":"OFFICES","code":"L130","name":"Loi 130","photoLink":"L130.jpg","occupants":"AGRI, ECHO","hasSAS":false,"contactList":{"contacts":[{"name":"Réception","phone":"+32229 50290"},{"name":"OIB PROXIMITY TEAM L130","phone":"+32229 95556","email":"OIB-PROXIMITY-TEAM-L130@ec.europa.eu"}]},"buildingAddress":{"streetAddress":"Rue de la Loi 130","postalCode":1040,"city":"Etterbeek","country":"Belgium","gpsCoordinates":{"latitude":50.843804,"longitude":4.377706}},"buildingOpeningHoursList":{"openingHours":[{"daysOfWeek":[6,13],"startTime":"07:00","endTime":"16:00"},{"daysOfWeek":[1,2,3,4,5,8,9,10,11,12],"startTime":"06:00","endTime":"21:00"}]},"parkingFacility":{"nonReservedCarPlaces":263,"serviceBicycles":4,"electricBicycles":0,"hasSAS":false,"parkingContact":{"phone":"+32229 76919"},"parkingOpeningHoursList":{"openingHours":{"daysOfWeek":[1,2,3,4,5,8,9,10,11,12],"startTime":"06:00","endTime":"21:00"}},"parkingAddress":{"streetAddress":"chaussée d'Etterbeek, 7","postalCode":1040,"city":"Etterbeek","country":"Belgium","gpsCoordinates":{"latitude":50.844194,"longitude":4.377701}}},"showerFacility":{"showersMen":3,"showersWomen":3,"showersMixed":0,"location":"Floors 1 and 3"},"cafeteriaFacility":{"contractor":"UNIJOLLY","isClosed":false,"cafeteriaOpeningHoursList":{"openingHours":{"daysOfWeek":[1,2,3,4,5],"startTime":"08:30","endTime":"15:00"}}},"canteenFacility":{"contractor":"UNIJOLLY","isClosed":false,"canteenOpeningHoursList":{"openingHours":{"daysOfWeek":[1,2,3,4,5],"startTime":"12:00","endTime":"14:15"}},"canteenMenu":{"soup":"Provençal soup with fish","meal1":"Net whiting fillet , Vichy carrots, mashed potatoes, cream with dill","meal1Kcal":472,"meal2":"Osso bucco of turkey and its gremolata, tagliatelle","meal2Kcal":541,"vegetarian":"(Fit@work) Slice of tofu, coconut sate sauce, wok vegetables, rice\n","vegetarianKcal":660}}},{"type":"OFFICES","code":"DM24","name":"Demot 24","photoLink":"DM24.jpg","occupants":"ENER, EPSO, HR, MOVE","hasSAS":false,"contactList":{"contacts":[{"name":"Réception","phone":"+32229 51185"},{"name":"OIB PROXIMITY TEAM DM28","phone":"+32229 95552","email":"OIB-PROXIMITY-TEAM-DM28@ec.europa.eu"}]},"buildingAddress":{"streetAddress":"Rue Demot 24-26","postalCode":1040,"city":"Etterbeek","country":"Belgium","gpsCoordinates":{"latitude":50.838871,"longitude":4.383987}},"buildingOpeningHoursList":{"openingHours":[{"daysOfWeek":[1,2,3,4,5,8,9,10,11,12],"startTime":"07:00","endTime":"22:00"},{"daysOfWeek":[6,7,13,14],"startTime":"10:00","endTime":"18:00"}]},"parkingFacility":{"nonReservedCarPlaces":159,"serviceBicycles":9,"electricBicycles":1,"hasSAS":false,"parkingContact":{"phone":"+32229 69898"},"parkingOpeningHoursList":{"openingHours":{"daysOfWeek":[1,2,3,4,5,8,9,10,11,12],"startTime":"07:00","endTime":"22:00"}},"parkingAddress":{"streetAddress":"Rue Demot, 24-26","postalCode":1040,"city":"Etterbeek","country":"Belgium","gpsCoordinates":{"latitude":50.839125,"longitude":4.384014}}},"showerFacility":{"showersMen":1,"showersWomen":1,"showersMixed":0,"location":"Floor -1"},"cafeteriaFacility":{"contractor":"CIANO","isClosed":false,"cafeteriaOpeningHoursList":{"openingHours":{"daysOfWeek":[1,2,3,4,5],"startTime":"08:30","endTime":"16:30"}}}},{"type":"CHILDCARE","code":"COLE","name":"Cornet-Leman","photoLink":"COLE.jpg","occupants":"OIB","hasSAS":false,"contactList":{"contacts":[{"name":"Réception","phone":"+32229 75739"},{"name":"OIB PROXIMITY TEAM CRECHES","phone":"+32229 91712","email":"OIB-PROXIMITY-TEAM-CRECHES@ec.europa.eu"}]},"buildingAddress":{"streetAddress":"Rue Général  Leman 46","postalCode":1040,"city":"Etterbeek","country":"Belgium","gpsCoordinates":{"latitude":50.83681,"longitude":4.384}},"buildingOpeningHoursList":{"openingHours":{"daysOfWeek":[1,2,3,4,5,8,9,10,11,12],"startTime":"06:30","endTime":"21:30"}},"parkingFacility":{"nonReservedCarPlaces":0,"serviceBicycles":2,"electricBicycles":0,"hasSAS":false,"parkingContact":{"phone":"+32229 75739"},"parkingOpeningHoursList":{"openingHours":{"daysOfWeek":[1,2,3,4,5,8,9,10,11,12],"startTime":"07:00","endTime":"20:00"}},"parkingAddress":{"streetAddress":"Rue Général Leman, 46  Technical city (migration)","postalCode":1040,"city":"Etterbeek","country":"Belgium","gpsCoordinates":{"latitude":50.836786,"longitude":4.383724}}},"showerFacility":{"showersMen":0,"showersWomen":0,"showersMixed":6,"location":"Floors 1 and 3"}},{"type":"OFFICES","code":"L-15","name":"Loi 15","photoLink":"L-15.jpg","occupants":"HOME, NEAR","hasSAS":false,"contactList":{"contacts":[{"name":"Réception","phone":"+32229 77342"},{"name":"OIB PROXIMITY TEAM J-30","phone":"+32229 95588","email":"OIB-PROXIMITY-TEAM-J-30@ec.europa.eu"}]},"buildingAddress":{"streetAddress":"Rue de la Loi 15","postalCode":1040,"city":"Etterbeek","country":"Belgium","gpsCoordinates":{"latitude":50.845284,"longitude":4.369038}},"buildingOpeningHoursList":{"openingHours":[{"daysOfWeek":[6,13],"startTime":"10:00","endTime":"17:00"},{"daysOfWeek":[1,2,3,4,5,8,9,10,11,12],"startTime":"07:00","endTime":"21:00"}]},"parkingFacility":{"nonReservedCarPlaces":50,"serviceBicycles":6,"electricBicycles":1,"hasSAS":false,"parkingContact":{"phone":"+32229 77341"},"parkingOpeningHoursList":{"openingHours":{"daysOfWeek":[1,2,3,4,5,8,9,10,11,12],"startTime":"07:00","endTime":"20:00"}},"parkingAddress":{"streetAddress":"rue du Commerce, 114","postalCode":1040,"city":"Etterbeek","country":"Belgium","gpsCoordinates":{"latitude":50.844878,"longitude":4.369875}}},"showerFacility":{"showersMen":1,"showersWomen":1,"showersMixed":0,"location":"Floor -1"},"cafeteriaFacility":{"contractor":"UNIJOLLY","isClosed":false,"cafeteriaOpeningHoursList":{"openingHours":{"daysOfWeek":[1,2,3,4,5],"startTime":"08:30","endTime":"16:00"}}}},{"type":"OFFICES","code":"W910","name":"ROLIN","occupants":"INEA","hasSAS":false,"contactList":{"contacts":[{"name":"Réception","phone":"+32229 72289"},{"name":"OIB PROXIMITY TEAM MERO","phone":"+32229 98853","email":"OIB-PROXIMITY-TEAM-MERO@ec.europa.eu"}]},"buildingAddress":{"streetAddress":"Chaussée de Wavre 910","postalCode":1040,"city":"Etterbeek","country":"Belgium","gpsCoordinates":{"latitude":50.82693,"longitude":4.396168}},"buildingOpeningHoursList":{"openingHours":{"daysOfWeek":[1,2,3,4,5,8,9,10,11,12],"startTime":"06:30","endTime":"20:30"}},"parkingFacility":{"nonReservedCarPlaces":34,"serviceBicycles":4,"electricBicycles":0,"hasSAS":true,"parkingContact":{"phone":"+32229 72289"},"parkingOpeningHoursList":{"openingHours":{"daysOfWeek":[1,2,3,4,5,8,9,10,11,12],"startTime":"07:30","endTime":"19:30"}},"parkingAddress":{"streetAddress":"Chaussée de Wavre, 910","postalCode":1040,"city":"Etterbeek","country":"Belgium","gpsCoordinates":{"latitude":50.82705,"longitude":4.395978}}}},{"type":"OFFICES","code":"L102","name":"Loi 102","photoLink":"L102.jpg","occupants":"SCIC","hasSAS":false,"contactList":{"contacts":[{"name":"Réception","phone":"+32229 61776"},{"name":"OIB PROXIMITY TEAM L130","phone":"+32229 95556","email":"OIB-PROXIMITY-TEAM-L130@ec.europa.eu"}]},"buildingAddress":{"streetAddress":"Rue de la Loi 102","postalCode":1040,"city":"Etterbeek","country":"Belgium","gpsCoordinates":{"latitude":50.844126,"longitude":4.375983}},"buildingOpeningHoursList":{"openingHours":{"daysOfWeek":[1,2,3,4,5,8,9,10,11,12],"startTime":"07:00","endTime":"20:00"}},"parkingFacility":{"nonReservedCarPlaces":34,"serviceBicycles":0,"electricBicycles":0,"hasSAS":false,"parkingContact":{"phone":"+32229 61776"},"parkingAddress":{"streetAddress":"Rue de la Loi, 100","postalCode":1040,"city":"Etterbeek","country":"Belgium","gpsCoordinates":{"latitude":50.844168,"longitude":4.375794}}},"showerFacility":{"showersMen":0,"showersWomen":0,"showersMixed":1,"location":"Floor -1"}},{"type":"OFFICES","code":"B100","name":"Belliard 100","photoLink":"B100.jpg","occupants":"HR\/VP","hasSAS":false,"contactList":{"contacts":[{"name":"Réception","phone":"+322584 6020"},{"name":"OIB PROXIMITY TEAM EEAS","phone":"+322584 2569","email":"OIB-PROXIMITY-TEAM-EEAS@ec.europa.eu"}]},"buildingAddress":{"streetAddress":"Rue Belliard 100","postalCode":1040,"city":"Etterbeek","country":"Belgium","gpsCoordinates":{"latitude":50.841112,"longitude":4.375954}},"parkingFacility":{"nonReservedCarPlaces":26,"serviceBicycles":0,"electricBicycles":0,"hasSAS":true,"parkingContact":{"phone":"+322584 4799"},"parkingAddress":{"streetAddress":"Rue de Pascale, 7","postalCode":1040,"city":"Etterbeek","country":"Belgium","gpsCoordinates":{"latitude":50.841268,"longitude":4.376324}}},"showerFacility":{"showersMen":0,"showersWomen":0,"showersMixed":0,"location":"Floor -1"}},{"type":"OFFICES","code":"L-86","name":"Loi 86","photoLink":"L-86.jpg","occupants":"ECHO","hasSAS":false,"contactList":{"contacts":[{"name":"Réception","phone":"+32229 56463"},{"name":"OIB PROXIMITY TEAM J-99","phone":"+32229 95577","email":"OIB-PROXIMITY-TEAM-J-99@ec.europa.eu"}]},"buildingAddress":{"streetAddress":"Rue de la Loi 86","postalCode":1040,"city":"Etterbeek","country":"Belgium","gpsCoordinates":{"latitude":50.844224,"longitude":4.375502}},"buildingOpeningHoursList":{"openingHours":{"daysOfWeek":[1,2,3,4,5,8,9,10,11,12],"startTime":"07:15","endTime":"22:00"}},"parkingFacility":{"nonReservedCarPlaces":101,"serviceBicycles":8,"electricBicycles":0,"hasSAS":false,"parkingContact":{"phone":"+32229 55958"},"parkingOpeningHoursList":{"openingHours":{"daysOfWeek":[1,2,3,4,5,8,9,10,11,12],"startTime":"07:00","endTime":"22:00"}},"parkingAddress":{"streetAddress":"Rue de la Loi, 100","postalCode":1040,"city":"Etterbeek","country":"Belgium","gpsCoordinates":{"latitude":50.844168,"longitude":4.375794}}},"showerFacility":{"showersMen":0,"showersWomen":0,"showersMixed":1,"location":"Floor 0"},"cafeteriaFacility":{"contractor":"UNIJOLLY","isClosed":false,"cafeteriaOpeningHoursList":{"openingHours":{"daysOfWeek":[1,2,3,4,5],"startTime":"08:30","endTime":"16:30"}}}},{"type":"OFFICES","code":"N105","name":"Nerviens 105","photoLink":"N105.jpg","occupants":"GROW","hasSAS":false,"contactList":{"contacts":[{"name":"Réception","phone":"+32229 72109"},{"name":"OIB PROXIMITY TEAM BREY","phone":"+32229 95555","email":"OIB-PROXIMITY-TEAM-BREYDEL@ec.europa.eu"}]},"buildingAddress":{"streetAddress":"Avenue des Nerviens 105","postalCode":1040,"city":"Etterbeek","country":"Belgium","gpsCoordinates":{"latitude":50.838418,"longitude":4.390689}},"buildingOpeningHoursList":{"openingHours":{"daysOfWeek":[1,2,3,4,5,8,9,10,11,12],"startTime":"07:00","endTime":"21:00"}},"parkingFacility":{"nonReservedCarPlaces":94,"serviceBicycles":7,"electricBicycles":0,"hasSAS":false,"parkingContact":{"phone":"+32229 71625"},"parkingOpeningHoursList":{"openingHours":{"daysOfWeek":[1,2,3,4,5,8,9,10,11,12],"startTime":"07:00","endTime":"21:00"}},"parkingAddress":{"streetAddress":"Rue du Cornet, 164","postalCode":1040,"city":"Etterbeek","country":"Belgium","gpsCoordinates":{"latitude":50.83811,"longitude":4.390566}}},"showerFacility":{"showersMen":1,"showersWomen":1,"showersMixed":0,"location":"Floor 0"},"cafeteriaFacility":{"contractor":"CIANO","isClosed":false,"cafeteriaOpeningHoursList":{"openingHours":{"daysOfWeek":[1,2,3,4,5],"startTime":"08:30","endTime":"15:30"}}}},{"type":"OFFICES","code":"SC11","name":"Millenium","photoLink":"SC11.jpg","occupants":"HR","hasSAS":false,"contactList":{"contacts":[{"name":"Réception","phone":"+32229 96412"},{"name":"OIB PROXIMITY TEAM SC11","phone":"+32229 91714","email":"OIB-PROXIMITY-TEAM-SC11@ec.europa.eu"}]},"buildingAddress":{"streetAddress":"Rue de la Science 11","postalCode":1040,"city":"Etterbeek","country":"Belgium","gpsCoordinates":{"latitude":50.841616,"longitude":4.370992}},"buildingOpeningHoursList":{"openingHours":{"daysOfWeek":[1,2,3,4,5,8,9,10,11,12],"startTime":"06:30","endTime":"22:00"}},"parkingFacility":{"nonReservedCarPlaces":96,"serviceBicycles":0,"electricBicycles":0,"hasSAS":false,"parkingContact":{"phone":"+32229 95561"},"parkingOpeningHoursList":{"openingHours":{"daysOfWeek":[1,2,3,4,5,8,9,10,11,12],"startTime":"07:00","endTime":"22:00"}},"parkingAddress":{"streetAddress":"Rue de la Science, 9","postalCode":1040,"city":"Etterbeek","country":"Belgium","gpsCoordinates":{"latitude":50.841574,"longitude":4.370971}}},"showerFacility":{"showersMen":2,"showersWomen":2,"showersMixed":0,"location":"Floor -3"},"cafeteriaFacility":{"contractor":"UNIJOLLY","isClosed":false,"cafeteriaOpeningHoursList":{"openingHours":{"daysOfWeek":[1,2,3,4,5],"startTime":"08:30","endTime":"15:30"}}}},{"type":"OFFICES","code":"VM18","name":"Ex-Couvent VM","photoLink":"VM18.jpg","occupants":"EAC, SCIC","hasSAS":false,"contactList":{"contacts":[{"name":"Réception","phone":"+32229 65222"},{"name":"OIB PROXIMITY TEAM DM28","phone":"+32229 95552","email":"OIB-PROXIMITY-TEAM-DM28@ec.europa.eu"}]},"buildingAddress":{"streetAddress":"Rue Van Maerlant 18","postalCode":1040,"city":"Etterbeek","country":"Belgium","gpsCoordinates":{"latitude":50.841187,"longitude":4.378219}},"buildingOpeningHoursList":{"openingHours":{"daysOfWeek":[1,2,3,4,5,8,9,10,11,12],"startTime":"07:00","endTime":"20:00"}},"parkingFacility":{"nonReservedCarPlaces":31,"serviceBicycles":0,"electricBicycles":0,"hasSAS":true,"parkingContact":{"phone":"+32229 62025"},"parkingOpeningHoursList":{"openingHours":{"daysOfWeek":[1,2,3,4,5,8,9,10,11,12],"startTime":"07:00","endTime":"20:00"}},"parkingAddress":{"streetAddress":"Rue Van Maerlant, 18","postalCode":1040,"city":"Etterbeek","country":"Belgium","gpsCoordinates":{"latitude":50.841101,"longitude":4.378018}}},"showerFacility":{"showersMen":2,"showersWomen":2,"showersMixed":0,"location":"Floor -2"}},{"type":"OFFICES","code":"VM-2","name":"Van Maerlant 2","photoLink":"VM-2.jpg","hasSAS":false,"contactList":{"contacts":[{"name":"Réception","phone":"+32229 63979"},{"name":"OIB PROXIMITY TEAM DM28","phone":"+32229 95552","email":"OIB-PROXIMITY-TEAM-DM28@ec.europa.eu"}]},"buildingAddress":{"streetAddress":"Rue Van Maerlant 2","postalCode":1040,"city":"Etterbeek","country":"Belgium","gpsCoordinates":{"latitude":50.840861,"longitude":4.377293}},"parkingFacility":{"nonReservedCarPlaces":76,"serviceBicycles":5,"electricBicycles":0,"hasSAS":true,"parkingContact":{"phone":"+32229 54970"},"parkingAddress":{"streetAddress":"Rue Van Maerlant, 2","postalCode":1040,"city":"Etterbeek","country":"Belgium","gpsCoordinates":{"latitude":50.840933,"longitude":4.37761}}},"showerFacility":{"showersMen":6,"showersWomen":8,"showersMixed":0,"location":"Floor 0"},"cafeteriaFacility":{"contractor":"UNIJOLLY","isClosed":false,"cafeteriaOpeningHoursList":{"openingHours":{"daysOfWeek":[1,2,3,4,5],"startTime":"08:30","endTime":"15:30"}}}},{"type":"OFFICES","code":"B232","name":"Belliard 232 (White Park)","photoLink":"B232.jpg","occupants":"SANTE","hasSAS":false,"contactList":{"contacts":[{"name":"Réception","phone":"+32229 57403"},{"name":"OIB PROXIMITY TEAM BREY","phone":"+32229 95555","email":"OIB-PROXIMITY-TEAM-BREYDEL@ec.europa.eu"}]},"buildingAddress":{"streetAddress":"rue Breydel 2-10","postalCode":1040,"city":"Etterbeek","country":"Belgium","gpsCoordinates":{"latitude":50.839997,"longitude":4.383588}},"buildingOpeningHoursList":{"openingHours":[{"daysOfWeek":[6,13],"startTime":"09:00","endTime":"18:00"},{"daysOfWeek":[1,2,3,4,5,8,9,10,11,12],"startTime":"07:00","endTime":"20:00"}]},"parkingFacility":{"nonReservedCarPlaces":96,"serviceBicycles":5,"electricBicycles":0,"hasSAS":false,"parkingContact":{"phone":"+32229 57404"},"parkingOpeningHoursList":{"openingHours":{"daysOfWeek":[1,2,3,4,5,8,9,10,11,12],"startTime":"07:00","endTime":"20:00"}},"parkingAddress":{"streetAddress":"Rue Breydel, 2","postalCode":1040,"city":"Etterbeek","country":"Belgium","gpsCoordinates":{"latitude":50.839997,"longitude":4.383588}}},"showerFacility":{"showersMen":0,"showersWomen":0,"showersMixed":2,"location":"Floors 2 and 4"}},{"type":"OFFICES","code":"L-41","name":"Eurosquare","photoLink":"L-41.jpg","occupants":"DEVCO","hasSAS":false,"contactList":{"contacts":[{"name":"Réception","phone":"+32229 93520"},{"name":"OIB PROXIMITY TEAM ORBN","phone":"+32229 95590","email":"OIB-PROXIMITY-TEAM-ORBN@ec.europa.eu"}]},"buildingAddress":{"streetAddress":"Rue de la Loi 41","postalCode":1040,"city":"Etterbeek","country":"Belgium","gpsCoordinates":{"latitude":50.844764,"longitude":4.371898}},"buildingOpeningHoursList":{"openingHours":[{"daysOfWeek":[1,2,3,4,5,8,9,10,11,12],"startTime":"05:45","endTime":"22:00"},{"daysOfWeek":[6,7,13,14],"startTime":"09:00","endTime":"18:00"}]},"parkingFacility":{"nonReservedCarPlaces":260,"serviceBicycles":12,"electricBicycles":0,"hasSAS":false,"parkingContact":{"phone":"+32229 93459"},"parkingOpeningHoursList":{"openingHours":{"daysOfWeek":[1,2,3,4,5,8,9,10,11,12],"startTime":"06:30","endTime":"21:00"}},"parkingAddress":{"streetAddress":"Rue de la Science, 18","postalCode":1040,"city":"Etterbeek","country":"Belgium","gpsCoordinates":{"latitude":50.844336,"longitude":4.372345}}},"showerFacility":{"showersMen":1,"showersWomen":1,"showersMixed":0,"location":"Floor -1"},"cafeteriaFacility":{"contractor":"COMPASS","isClosed":false,"cafeteriaOpeningHoursList":{"openingHours":{"daysOfWeek":[1,2,3,4,5],"startTime":"08:30","endTime":"16:30"}}},"canteenFacility":{"contractor":"COMPASS","isClosed":false,"canteenOpeningHoursList":{"openingHours":{"daysOfWeek":[1,2,3,4,5],"startTime":"12:00","endTime":"14:15"}},"canteenMenu":{"soup":"Swet peppers soup","starter":"Canneloni with salmon gratinated","meal1":"(Fit@work) Chicken fillet, peppers sauce, green cabbage, grenaille potatoes","meal1Kcal":420,"meal2":"Dab fillet, pumpkin crème sauce, leeks,\n sweet potatoes","meal2Kcal":520,"vegetarian":"Green wheat indian style, mushrooms, tempeh","vegetarianKcal":440}}},{"type":"OFFICES","code":"BREY","name":"Breydel","photoLink":"BREY.jpg","occupants":"BUDG, GROW, HR","hasSAS":false,"contactList":{"contacts":[{"name":"Réception","phone":"+32229 53097"},{"name":"OIB PROXIMITY TEAM BREY","phone":"+32229 95555","email":"OIB-PROXIMITY-TEAM-BREYDEL@ec.europa.eu"}]},"buildingAddress":{"streetAddress":"Avenue d'Auderghem 45","postalCode":1040,"city":"Etterbeek","country":"Belgium","gpsCoordinates":{"latitude":50.840034,"longitude":4.385099}},"buildingOpeningHoursList":{"openingHours":[{"daysOfWeek":[1,2,3,4,5,8,9,10,11,12],"startTime":"05:45","endTime":"22:15"},{"daysOfWeek":[6,7,13,14],"startTime":"08:00","endTime":"18:00"}]},"parkingFacility":{"nonReservedCarPlaces":315,"serviceBicycles":7,"electricBicycles":0,"hasSAS":false,"parkingContact":{"phone":"+32229 60584"},"parkingOpeningHoursList":{"openingHours":{"daysOfWeek":[1,2,3,4,5,8,9,10,11,12],"startTime":"06:00","endTime":"21:00"}},"parkingAddress":{"streetAddress":"rue Belliard, 248","postalCode":1040,"city":"Etterbeek","country":"Belgium","gpsCoordinates":{"latitude":50.839854,"longitude":4.384047}}},"showerFacility":{"showersMen":2,"showersWomen":2,"showersMixed":0,"location":"Floor 3"},"cafeteriaFacility":{"contractor":"COMPASS","isClosed":false,"cafeteriaOpeningHoursList":{"openingHours":{"daysOfWeek":[1,2,3,4,5],"startTime":"08:30","endTime":"16:30"}}},"canteenFacility":{"contractor":"COMPASS","isClosed":false,"canteenOpeningHoursList":{"openingHours":{"daysOfWeek":[1,2,3,4,5],"startTime":"12:00","endTime":"14:15"}},"canteenMenu":{"soup":"Swet peppers soup","starter":"Canneloni with salmon gratinated","meal1":"(Fit@work) Chicken fillet, peppers sauce, green cabbage, grenaille potatoes","meal1Kcal":420,"meal2":"Dab fillet, pumpkin crème sauce, leeks,\n sweet potatoes","meal2Kcal":520,"vegetarian":"Green wheat indian style, mushrooms, tempeh","vegetarianKcal":440}}},{"type":"OFFICES","code":"ORBN","name":"Espace Orban","photoLink":"ORBN.jpg","occupants":"RTD","hasSAS":false,"contactList":{"contacts":[{"name":"Réception","phone":"+32229 85510"},{"name":"OIB PROXIMITY TEAM ORBN","phone":"+32229 95590","email":"OIB-PROXIMITY-TEAM-ORBN@ec.europa.eu"}]},"buildingAddress":{"streetAddress":"Square Frère-Orban 8","postalCode":1040,"city":"Etterbeek","country":"Belgium","gpsCoordinates":{"latitude":50.843968,"longitude":4.371515}},"buildingOpeningHoursList":{"openingHours":[{"daysOfWeek":[1,2,3,4,5,8,9,10,11,12],"startTime":"07:00","endTime":"21:00"},{"daysOfWeek":[6,7,13,14],"startTime":"09:00","endTime":"18:00"}]},"parkingFacility":{"nonReservedCarPlaces":96,"serviceBicycles":6,"electricBicycles":0,"hasSAS":false,"parkingContact":{"phone":"+32229 74820"},"parkingOpeningHoursList":{"openingHours":{"daysOfWeek":[1,2,3,4,5,8,9,10,11,12],"startTime":"07:00","endTime":"21:00"}},"parkingAddress":{"streetAddress":"Rue de la Science, 16","postalCode":1040,"city":"Etterbeek","country":"Belgium","gpsCoordinates":{"latitude":50.844155,"longitude":4.372282}}},"showerFacility":{"showersMen":1,"showersWomen":1,"showersMixed":0,"location":"Floor -1"},"cafeteriaFacility":{"contractor":"UNIJOLLY","isClosed":false,"cafeteriaOpeningHoursList":{"openingHours":{"daysOfWeek":[1,2,3,4,5],"startTime":"08:30","endTime":"16:30"}}}},{"type":"OFFICES","code":"BRE2","name":"Breydel 2","photoLink":"BRE2.jpg","occupants":"BUDG, HR","hasSAS":false,"contactList":{"contacts":[{"name":"Réception","phone":"+32229 90493"},{"name":"OIB PROXIMITY TEAM BREY","phone":"+32229 95555","email":"OIB-PROXIMITY-TEAM-BREYDEL@ec.europa.eu"}]},"buildingAddress":{"streetAddress":"Avenue d'Auderghem 19","postalCode":1040,"city":"Etterbeek","country":"Belgium","gpsCoordinates":{"latitude":50.840855,"longitude":4.384616}},"buildingOpeningHoursList":{"openingHours":{"daysOfWeek":[1,2,3,4,5,8,9,10,11,12],"startTime":"06:00","endTime":"21:00"}},"parkingFacility":{"nonReservedCarPlaces":114,"serviceBicycles":6,"electricBicycles":0,"hasSAS":false,"parkingContact":{"phone":"+32229 51615"},"parkingOpeningHoursList":{"openingHours":{"daysOfWeek":[1,2,3,4,5,8,9,10,11,12],"startTime":"07:00","endTime":"20:00"}},"parkingAddress":{"streetAddress":"rue Breydel, 25","postalCode":1040,"city":"Etterbeek","country":"Belgium","gpsCoordinates":{"latitude":50.84065,"longitude":4.383954}}},"showerFacility":{"showersMen":2,"showersWomen":2,"showersMixed":0,"location":"Floor 4"},"cafeteriaFacility":{"contractor":"COMPASS","isClosed":false,"cafeteriaOpeningHoursList":{"openingHours":{"daysOfWeek":[1,2,3,4,5],"startTime":"08:30","endTime":"16:30"}}}},{"type":"OFFICES","code":"CHAR","name":"Charlemagne","photoLink":"CHAR.jpg","occupants":"COLLÈGE, COMM, ECFIN, SG, TRADE","hasSAS":false,"contactList":{"contacts":[{"name":"Réception","phone":"+32229 90600"},{"name":"OIB PROXIMITY TEAM PLB3","phone":"+32229 91717","email":"OIB-PROXIMITY-TEAM-PLB3@ec.europa.eu"}]},"buildingAddress":{"streetAddress":"Rue de la Loi 170","postalCode":1040,"city":"Etterbeek","country":"Belgium","gpsCoordinates":{"latitude":50.843422,"longitude":4.380024}},"buildingOpeningHoursList":{"openingHours":{"daysOfWeek":[1,2,3,4,5,6,7,8,9,10,11,12,13,14],"startTime":"00:00","endTime":"00:00"}},"parkingFacility":{"nonReservedCarPlaces":273,"serviceBicycles":14,"electricBicycles":1,"hasSAS":false,"parkingContact":{"phone":"+32229 61785"},"parkingOpeningHoursList":{"openingHours":{"daysOfWeek":[1,2,3,4,5,6,7,8,9,10,11,12,13,14],"startTime":"00:00","endTime":"00:00"}},"parkingAddress":{"streetAddress":"Rue Joseph II et rue du Taciturne, 1040 Bruxelles","postalCode":1040,"city":"Etterbeek","country":"Belgium","gpsCoordinates":{"latitude":50.843857,"longitude":4.379385}}},"showerFacility":{"showersMen":3,"showersWomen":3,"showersMixed":0,"location":"Floor -1"},"cafeteriaFacility":{"contractor":"COMPASS","isClosed":false,"cafeteriaOpeningHoursList":{"openingHours":{"daysOfWeek":[1,2,3,4,5],"startTime":"08:30","endTime":"17:00"}}},"canteenFacility":{"contractor":"COMPASS","isClosed":false,"canteenOpeningHoursList":{"openingHours":{"daysOfWeek":[1,2,3,4,5],"startTime":"12:00","endTime":"14:15"}},"canteenMenu":{"soup":"Swet peppers soup","starter":"Canneloni with salmon gratinated","meal1":"(Fit@work) Chicken fillet, peppers sauce, green cabbage, grenaille potatoes","meal1Kcal":420,"meal2":"Dab fillet, pumpkin crème sauce, leeks,\n sweet potatoes","meal2Kcal":520,"vegetarian":"Green wheat indian style, mushrooms, tempeh","vegetarianKcal":440}}},{"type":"OFFICES","code":"DM28","name":"Demot 28","photoLink":"DM28.jpg","occupants":"MOVE","hasSAS":false,"contactList":{"contacts":[{"name":"Réception","phone":"+32229 68682"},{"name":"OIB PROXIMITY TEAM DM28","phone":"+32229 95552","email":"OIB-PROXIMITY-TEAM-DM28@ec.europa.eu"}]},"buildingAddress":{"streetAddress":"Rue Demot 28","postalCode":1040,"city":"Etterbeek","country":"Belgium","gpsCoordinates":{"latitude":50.838068,"longitude":4.384623}},"buildingOpeningHoursList":{"openingHours":[{"daysOfWeek":[1,2,3,4,5,8,9,10,11,12],"startTime":"07:15","endTime":"22:00"},{"daysOfWeek":[6,7,13,14],"startTime":"10:00","endTime":"19:00"}]},"parkingFacility":{"nonReservedCarPlaces":142,"serviceBicycles":0,"electricBicycles":0,"hasSAS":false,"parkingContact":{"phone":"+32229 76869"},"parkingOpeningHoursList":{"openingHours":{"daysOfWeek":[1,2,3,4,5,8,9,10,11,12],"startTime":"07:00","endTime":"20:00"}},"parkingAddress":{"streetAddress":"Rue Demot, 28","postalCode":1040,"city":"Etterbeek","country":"Belgium","gpsCoordinates":{"latitude":50.837802,"longitude":4.384886}}},"showerFacility":{"showersMen":1,"showersWomen":1,"showersMixed":0,"location":"Floor -1"}},{"type":"OFFICES","code":"F101","name":"B232 Extension (Brey-Froi)","photoLink":"F101.jpg","occupants":"SANTE, SG","hasSAS":false,"contactList":{"contacts":[{"name":"Réception","phone":"+32229 52101"},{"name":"OIB PROXIMITY TEAM BREY","phone":"+32229 95555","email":"OIB-PROXIMITY-TEAM-BREYDEL@ec.europa.eu"}]},"buildingAddress":{"streetAddress":"Rue Froissart 101-107","postalCode":1040,"city":"Etterbeek","country":"Belgium","gpsCoordinates":{"latitude":50.840636,"longitude":4.382799}},"buildingOpeningHoursList":{"openingHours":{"daysOfWeek":[1,2,3,4,5,8,9,10,11,12],"startTime":"07:00","endTime":"21:00"}},"parkingFacility":{"nonReservedCarPlaces":61,"serviceBicycles":0,"electricBicycles":0,"hasSAS":false,"parkingContact":{"phone":"+32229 55836"},"parkingOpeningHoursList":{"openingHours":{"daysOfWeek":[1,2,3,4,5,8,9,10,11,12],"startTime":"07:00","endTime":"20:00"}},"parkingAddress":{"streetAddress":"Rue Froissart 101-107","postalCode":1040,"city":"Etterbeek","country":"Belgium","gpsCoordinates":{"latitude":50.840553,"longitude":4.382811}}},"showerFacility":{"showersMen":2,"showersWomen":2,"showersMixed":1,"location":"Floors 0 and -1"},"cafeteriaFacility":{"contractor":"COMPASS","isClosed":false,"cafeteriaOpeningHoursList":{"openingHours":{"daysOfWeek":[1,2,3,4,5],"startTime":"08:30","endTime":"16:00"}}}},{"type":"OFFICES","code":"CSM1","name":"Cours Saint Michel 1","photoLink":"CSM1.jpg","occupants":"OIB","hasSAS":false,"contactList":{"contacts":[{"name":"Réception","phone":"+32229 63385"},{"name":"OIB PROXIMITY TEAM MERO","phone":"+32229 98853","email":"OIB-PROXIMITY-TEAM-MERO@ec.europa.eu"}]},"buildingAddress":{"streetAddress":"Cours Saint-Michel, 23","postalCode":1040,"city":"Etterbeek","country":"Belgium","gpsCoordinates":{"latitude":50.837303,"longitude":4.400592}},"buildingOpeningHoursList":{"openingHours":{"daysOfWeek":[1,2,3,4,5,8,9,10,11,12],"startTime":"07:00","endTime":"21:00"}},"parkingFacility":{"nonReservedCarPlaces":24,"serviceBicycles":8,"electricBicycles":1,"hasSAS":true,"parkingContact":{"phone":"+32229 62503"},"parkingOpeningHoursList":{"openingHours":{"daysOfWeek":[1,2,3,4,5,8,9,10,11,12],"startTime":"07:00","endTime":"20:00"}},"parkingAddress":{"streetAddress":"Rue Père Dedeken, 24  (Rue Cuypers 20 parking VIP)","postalCode":1040,"city":"Etterbeek","country":"Belgium","gpsCoordinates":{"latitude":50.837167,"longitude":4.401064}}},"showerFacility":{"showersMen":0,"showersWomen":0,"showersMixed":2,"location":"Floor -1"}},{"type":"OFFICES","code":"EEAS","name":"The Capital","photoLink":"EEAS.jpg","occupants":"FPI, HR\/VP","hasSAS":false,"contactList":{"contacts":[{"name":"Réception","phone":"+322584 2016"},{"name":"OIB PROXIMITY TEAM EEAS","phone":"+322584 2051","email":"OIB-PROXIMITY-TEAM-EEAS@ec.europa.eu"}]},"buildingAddress":{"streetAddress":"Rond Point Schuman 9A","postalCode":1046,"city":"European External Action Service","country":"Belgium","gpsCoordinates":{"latitude":50.84252,"longitude":4.384709}},"showerFacility":{"showersMen":3,"showersWomen":3,"showersMixed":0,"location":"Floor -2"},"cafeteriaFacility":{"contractor":"UNIJOLLY","isClosed":false,"cafeteriaOpeningHoursList":{"openingHours":{"daysOfWeek":[1,2,3,4,5],"startTime":"08:30","endTime":"17:00"}}}},{"type":"OFFICES","code":"C158","name":"Cortenbergh 158","photoLink":"C158.jpg","occupants":"HR\/VP","hasSAS":false,"contactList":{"contacts":[{"name":"Réception","phone":"+322584 5017"},{"name":"OIB PROXIMITY TEAM EEAS","phone":"+322584 2795","email":"OIB-PROXIMITY-TEAM-EEAS@ec.europa.eu"}]},"buildingAddress":{"streetAddress":"Avenue du Cortenbergh 158","postalCode":1046,"city":"European External Action Service","country":"Belgium","gpsCoordinates":{"latitude":50.845614,"longitude":4.390983}}},{"type":"OFFICES","code":"C150","name":"Cortenbergh 150","photoLink":"C150.jpg","occupants":"HR\/VP","hasSAS":false,"contactList":{"contacts":[{"name":"Réception","phone":"+322584 5017"},{"name":"OIB PROXIMITY TEAM EEAS","phone":"+322584 2795","email":"OIB-PROXIMITY-TEAM-EEAS@ec.europa.eu"}]},"buildingAddress":{"streetAddress":"Avenue de Cortenbergh 150","postalCode":1046,"city":"European External Action Service","country":"Belgium","gpsCoordinates":{"latitude":50.845263,"longitude":4.390112}},"cafeteriaFacility":{"contractor":"CIANO","isClosed":false,"cafeteriaOpeningHoursList":{"openingHours":{"daysOfWeek":[1,2,3,4,5],"startTime":"08:30","endTime":"16:00"}}}},{"type":"OFFICES","code":"CDMA","name":"Mondrian (champ de Mars)","photoLink":"CDMA.jpg","occupants":"JRC, RTD","hasSAS":false,"contactList":{"contacts":[{"name":"Réception","phone":"+32229 87187"},{"name":"OIB PROXIMITY TEAM LX40","phone":"+32229 99955","email":"OIB-PROXIMITY-TEAM-LX40@ec.europa.eu"}]},"buildingAddress":{"streetAddress":"Rue du Champ de Mars 21","postalCode":1050,"city":"Ixelles \/ Elsene","country":"Belgium","gpsCoordinates":{"latitude":50.838532,"longitude":4.36517}},"buildingOpeningHoursList":{"openingHours":{"daysOfWeek":[1,2,3,4,5,8,9,10,11,12],"startTime":"07:00","endTime":"21:00"}},"parkingFacility":{"nonReservedCarPlaces":125,"serviceBicycles":8,"electricBicycles":1,"hasSAS":true,"parkingContact":{"phone":"+32229 87189"},"parkingOpeningHoursList":{"openingHours":{"daysOfWeek":[1,2,3,4,5,8,9,10,11,12],"startTime":"07:00","endTime":"20:00"}},"parkingAddress":{"streetAddress":"Rue du champ de Mars, 21 1050 Ixelles","postalCode":1050,"city":"Ixelles \/ Elsene","country":"Belgium","gpsCoordinates":{"latitude":50.838676,"longitude":4.365259}}},"showerFacility":{"showersMen":2,"showersWomen":2,"showersMixed":0,"location":"Floor -1"},"cafeteriaFacility":{"contractor":"COMPASS","isClosed":false,"cafeteriaOpeningHoursList":{"openingHours":{"daysOfWeek":[1,2,3,4,5],"startTime":"08:30","endTime":"16:00"}}}},{"type":"LOGISTICS","code":"NOHE","name":"Canal logistics fase II","hasSAS":false,"contactList":{"contacts":[{"name":"Réception"},{"name":"OIB PROXIMITY TEAM MERO","phone":"+32229 98853","email":"OIB-PROXIMITY-TEAM-MERO@ec.europa.eu"}]},"buildingAddress":{"streetAddress":"Chaussée de Vilvorde 142","postalCode":1120,"city":"Neder-Over-Heembeek","country":"Belgium","gpsCoordinates":{"latitude":50.893419,"longitude":4.39729}},"buildingOpeningHoursList":{"openingHours":{"daysOfWeek":[1,2,3,4,5,6,7,8,9,10,11,12,13,14],"startTime":"00:00","endTime":"00:00"}},"parkingFacility":{"nonReservedCarPlaces":0,"serviceBicycles":0,"electricBicycles":0,"hasSAS":true,"parkingAddress":{"postalCode":1120,"city":"Neder-Over-Heembeek","country":"Belgium","gpsCoordinates":{"latitude":50.893419,"longitude":4.39729}}},"showerFacility":{"showersMen":0,"showersWomen":0,"showersMixed":0}},{"type":"OFFICES","code":"G--6","name":"Genève 6","photoLink":"G--6.jpg","occupants":"DGT","hasSAS":false,"contactList":{"contacts":[{"name":"Réception","phone":"+32229 59699"},{"name":"OIB PROXIMITY TEAM G--1","phone":"+32229 95551","email":"OIB-PROXIMITY-TEAM-G1@ec.europa.eu"}]},"buildingAddress":{"streetAddress":"Rue de Genève 6","postalCode":1140,"city":"Evere","country":"Belgium","gpsCoordinates":{"latitude":50.864971,"longitude":4.403139}},"buildingOpeningHoursList":{"openingHours":[{"daysOfWeek":[1,2,3,4,5,8,9,10,11,12],"startTime":"05:45","endTime":"21:15"},{"daysOfWeek":[6,7,13,14],"startTime":"09:00","endTime":"18:00"}]},"parkingFacility":{"nonReservedCarPlaces":256,"serviceBicycles":4,"electricBicycles":1,"hasSAS":false,"parkingContact":{"phone":"+32229 68746"},"parkingOpeningHoursList":{"openingHours":{"daysOfWeek":[1,2,3,4,5,8,9,10,11,12],"startTime":"07:00","endTime":"21:00"}},"parkingAddress":{"streetAddress":"rue de Genève, 6","postalCode":1140,"city":"Evere","country":"Belgium","gpsCoordinates":{"latitude":50.864511,"longitude":4.403171}}},"showerFacility":{"showersMen":2,"showersWomen":2,"showersMixed":0,"location":"Floor -1"},"cafeteriaFacility":{"contractor":"COMPASS","isClosed":false,"cafeteriaOpeningHoursList":{"openingHours":{"daysOfWeek":[1,2,3,4,5],"startTime":"08:30","endTime":"16:00"}}},"canteenFacility":{"contractor":"COMPASS","isClosed":false,"canteenOpeningHoursList":{"openingHours":{"daysOfWeek":[1,2,3,4,5],"startTime":"12:00","endTime":"13:45"}},"canteenMenu":{"soup":"Swet peppers soup","starter":"Canneloni with salmon gratinated","meal1":"(Fit@work) Chicken fillet, peppers sauce, green cabbage, grenaille potatoes","meal1Kcal":420,"meal2":"Dab fillet, pumpkin crème sauce, leeks,\n sweet potatoes","meal2Kcal":520,"vegetarian":"Green wheat indian style, mushrooms, tempeh","vegetarianKcal":440}}},{"type":"LOGISTICS","code":"DAV1","name":"Bâtiment logistique","photoLink":"DAV1.jpg","hasSAS":false,"contactList":{"contacts":[{"name":"Réception","phone":"+32229 92681"},{"name":"OIB PROXIMITY TEAM G--1","phone":"+32229 95551","email":"OIB-PROXIMITY-TEAM-G1@ec.europa.eu"}]},"buildingAddress":{"streetAddress":"Avenue du Bourget 3","postalCode":1140,"city":"Evere","country":"Belgium","gpsCoordinates":{"latitude":50.876676,"longitude":4.413135}},"buildingOpeningHoursList":{"openingHours":{"daysOfWeek":[1,2,3,4,5,6,7,8,9,10,11,12,13,14],"startTime":"00:00","endTime":"00:00"}},"parkingFacility":{"nonReservedCarPlaces":0,"serviceBicycles":1,"electricBicycles":0,"hasSAS":false,"parkingContact":{"phone":"+32229 92681"},"parkingAddress":{"streetAddress":"av. du Bourget, 23","postalCode":1140,"city":"Evere","country":"Belgium","gpsCoordinates":{"latitude":50.876676,"longitude":4.413135}}},"showerFacility":{"showersMen":2,"showersWomen":2,"showersMixed":0,"location":"Floor 0"}},{"type":"OFFICES","code":"G--1","name":"Genève 1 - Astrid","photoLink":"G--1.jpg","occupants":"DIGIT","hasSAS":false,"contactList":{"contacts":[{"name":"Réception","phone":"+32229 57654"},{"name":"OIB PROXIMITY TEAM G--1","phone":"+32229 95551","email":"OIB-PROXIMITY-TEAM-G1@ec.europa.eu"}]},"buildingAddress":{"streetAddress":"Rue de Genève 1","postalCode":1140,"city":"Evere","country":"Belgium","gpsCoordinates":{"latitude":50.864411,"longitude":4.403512}},"buildingOpeningHoursList":{"openingHours":{"daysOfWeek":[1,2,3,4,5,8,9,10,11,12],"startTime":"07:00","endTime":"21:00"}},"parkingFacility":{"nonReservedCarPlaces":247,"serviceBicycles":3,"electricBicycles":0,"hasSAS":false,"parkingContact":{"phone":"+32229 93032"},"parkingOpeningHoursList":{"openingHours":{"daysOfWeek":[1,2,3,4,5,8,9,10,11,12],"startTime":"07:00","endTime":"20:00"}},"parkingAddress":{"streetAddress":"Rue de Genève, 1","postalCode":1140,"city":"Evere","country":"Belgium","gpsCoordinates":{"latitude":50.864861,"longitude":4.403373}}},"showerFacility":{"showersMen":0,"showersWomen":0,"showersMixed":1,"location":"Floor 0"}},{"type":"OFFICES","code":"G-12","name":"Genève 12 - Evere Green","photoLink":"G-12.jpg","occupants":"DGT","hasSAS":false,"contactList":{"contacts":[{"name":"Réception","phone":"+32229 92941"},{"name":"OIB PROXIMITY TEAM G--1","phone":"+32229 95551","email":"OIB-PROXIMITY-TEAM-G1@ec.europa.eu"}]},"buildingAddress":{"streetAddress":"Rue de Genève 12","postalCode":1140,"city":"Evere","country":"Belgium","gpsCoordinates":{"latitude":50.862415,"longitude":4.403071}},"buildingOpeningHoursList":{"openingHours":[{"daysOfWeek":[1,2,3,4,5,8,9,10,11,12],"startTime":"07:00","endTime":"21:00"},{"daysOfWeek":[6,7,13,14],"startTime":"09:00","endTime":"18:00"}]},"parkingFacility":{"nonReservedCarPlaces":286,"serviceBicycles":3,"electricBicycles":0,"hasSAS":false,"parkingContact":{"phone":"+32229 93015"},"parkingOpeningHoursList":{"openingHours":{"daysOfWeek":[1,2,3,4,5,8,9,10,11,12],"startTime":"07:00","endTime":"21:00"}},"parkingAddress":{"streetAddress":"Rue de Génève, 12","postalCode":1140,"city":"Evere","country":"Belgium","gpsCoordinates":{"latitude":50.861942,"longitude":4.403092}}},"showerFacility":{"showersMen":1,"showersWomen":1,"showersMixed":0,"location":"Floor -1"},"cafeteriaFacility":{"contractor":"COMPASS","isClosed":false,"cafeteriaOpeningHoursList":{"openingHours":{"daysOfWeek":[1,2,3,4,5],"startTime":"08:30","endTime":"16:00"}}}},{"type":"OFFICES","code":"BU29","name":"Beaulieu 29","photoLink":"BU29.jpg","occupants":"REGIO","hasSAS":false,"contactList":{"contacts":[{"name":"Réception","phone":"+32229 68375"},{"name":"OIB PROXIMITY TEAM BU31","phone":"+32229 95544","email":"OIB-PROXIMITY-TEAM-BU31@ec.europa.eu"}]},"buildingAddress":{"streetAddress":"Avenue de Beaulieu 29","postalCode":1160,"city":"Auderghem \/ Oudergem","country":"Belgium","gpsCoordinates":{"latitude":50.814323,"longitude":4.411238}},"buildingOpeningHoursList":{"openingHours":{"daysOfWeek":[1,2,3,4,5,8,9,10,11,12],"startTime":"07:00","endTime":"20:00"}},"parkingFacility":{"nonReservedCarPlaces":120,"serviceBicycles":0,"electricBicycles":0,"hasSAS":false,"parkingContact":{"phone":"+32229 68453"},"parkingOpeningHoursList":{"openingHours":{"daysOfWeek":[1,2,3,4,5,8,9,10,11,12],"startTime":"07:00","endTime":"20:00"}},"parkingAddress":{"streetAddress":"Avenue de Beaulieu, 29","postalCode":1160,"city":"Auderghem \/ Oudergem","country":"Belgium","gpsCoordinates":{"latitude":50.814131,"longitude":4.411538}}},"showerFacility":{"showersMen":0,"showersWomen":0,"showersMixed":1,"location":"Floor 0"},"cafeteriaFacility":{"contractor":"CIANO","isClosed":false,"cafeteriaOpeningHoursList":{"openingHours":{"daysOfWeek":[1,2,3,4,5],"startTime":"08:30","endTime":"16:30"}}}},{"type":"OFFICES","code":"BU25","name":"Beaulieu 25","photoLink":"BU25.jpg","occupants":"CNECT","hasSAS":false,"contactList":{"contacts":[{"name":"Réception","phone":"+32229 53818"},{"name":"OIB PROXIMITY TEAM BU31","phone":"+32229 95544","email":"OIB-PROXIMITY-TEAM-BU31@ec.europa.eu"}]},"buildingAddress":{"streetAddress":"Avenue de Beaulieu 25","postalCode":1160,"city":"Auderghem \/ Oudergem","country":"Belgium","gpsCoordinates":{"latitude":50.814347,"longitude":4.412298}},"buildingOpeningHoursList":{"openingHours":{"daysOfWeek":[1,2,3,4,5,6,7,8,9,10,11,12,13,14],"startTime":"00:00","endTime":"00:00"}},"parkingFacility":{"nonReservedCarPlaces":179,"serviceBicycles":6,"electricBicycles":0,"hasSAS":false,"parkingContact":{"phone":"+32229 97880"},"parkingOpeningHoursList":{"openingHours":{"daysOfWeek":[1,2,3,4,5,8,9,10,11,12],"startTime":"07:00","endTime":"20:00"}},"parkingAddress":{"streetAddress":"Avenue de Beaulieu, 25","postalCode":1160,"city":"Auderghem \/ Oudergem","country":"Belgium","gpsCoordinates":{"latitude":50.814142,"longitude":4.412277}}},"showerFacility":{"showersMen":2,"showersWomen":2,"showersMixed":0,"location":"Floor 0"}},{"type":"OFFICES","code":"BU-1","name":"Beaulieu 1 (Espace Beaulieu)","photoLink":"BU-1.jpg","occupants":"REGIO","hasSAS":false,"contactList":{"contacts":[{"name":"Réception","phone":"+32229 93652"},{"name":"OIB PROXIMITY TEAM BU-5","phone":"+32229 95583","email":"OIB-PROXIMITY-TEAM-BU-5@ec.europa.eu"}]},"buildingAddress":{"streetAddress":"Avenue de Beaulieu 1","postalCode":1160,"city":"Auderghem \/ Oudergem","country":"Belgium","gpsCoordinates":{"latitude":50.814086,"longitude":4.416236}},"buildingOpeningHoursList":{"openingHours":[{"daysOfWeek":[1,2,3,4,5,8,9,10,11,12],"startTime":"05:45","endTime":"22:00"},{"daysOfWeek":[6,7,13,14],"startTime":"07:00","endTime":"19:00"}]},"parkingFacility":{"nonReservedCarPlaces":143,"serviceBicycles":0,"electricBicycles":0,"hasSAS":false,"parkingContact":{"phone":"+32229 93574"},"parkingOpeningHoursList":{"openingHours":{"daysOfWeek":[1,2,3,4,5,8,9,10,11,12],"startTime":"07:00","endTime":"21:00"}},"parkingAddress":{"streetAddress":"Avenue de Beaulieu, 1","postalCode":1160,"city":"Auderghem \/ Oudergem","country":"Belgium","gpsCoordinates":{"latitude":50.813826,"longitude":4.415879}}},"showerFacility":{"showersMen":2,"showersWomen":2,"showersMixed":0,"location":"Floor -1"}},{"type":"OFFICES","code":"BU33","name":"Beaulieu 33","photoLink":"BU33.jpg","occupants":"CNECT","hasSAS":false,"contactList":{"contacts":[{"name":"Réception","phone":"+32229 68200"},{"name":"OIB PROXIMITY TEAM BU31","phone":"+32229 95544","email":"OIB-PROXIMITY-TEAM-BU31@ec.europa.eu"}]},"buildingAddress":{"streetAddress":"Avenue de Beaulieu 33","postalCode":1160,"city":"Auderghem \/ Oudergem","country":"Belgium","gpsCoordinates":{"latitude":50.814376,"longitude":4.41004}},"buildingOpeningHoursList":{"openingHours":{"daysOfWeek":[1,2,3,4,5,8,9,10,11,12],"startTime":"07:00","endTime":"20:00"}},"parkingFacility":{"nonReservedCarPlaces":76,"serviceBicycles":0,"electricBicycles":0,"hasSAS":false,"parkingContact":{"phone":"+32229 68204"},"parkingOpeningHoursList":{"openingHours":{"daysOfWeek":[1,2,3,4,5,8,9,10,11,12],"startTime":"07:00","endTime":"20:00"}},"parkingAddress":{"streetAddress":"Avenue de Beaulieu, 33","postalCode":1160,"city":"Auderghem \/ Oudergem","country":"Belgium","gpsCoordinates":{"latitude":50.814137,"longitude":4.410316}}},"showerFacility":{"showersMen":2,"showersWomen":2,"showersMixed":0,"location":"Floor -1"}},{"type":"OFFICES","code":"BU-5","name":"Beaulieu 5 (Espace Beaulieu)","photoLink":"BU-5.jpg","occupants":"ENV, REGIO","hasSAS":false,"contactList":{"contacts":[{"name":"Réception","phone":"+32229 59507"},{"name":"OIB PROXIMITY TEAM BU-5","phone":"+32229 95583","email":"OIB-PROXIMITY-TEAM-BU-5@ec.europa.eu"}]},"buildingAddress":{"streetAddress":"Avenue du Beaulieu 5","postalCode":1160,"city":"Auderghem \/ Oudergem","country":"Belgium","gpsCoordinates":{"latitude":50.814137,"longitude":4.414585}},"buildingOpeningHoursList":{"openingHours":{"daysOfWeek":[1,2,3,4,5,8,9,10,11,12],"startTime":"07:00","endTime":"20:00"}},"parkingFacility":{"nonReservedCarPlaces":179,"serviceBicycles":5,"electricBicycles":1,"hasSAS":false,"parkingContact":{"phone":"+32229 59507"},"parkingOpeningHoursList":{"openingHours":{"daysOfWeek":[1,2,3,4,5,8,9,10,11,12],"startTime":"08:00","endTime":"20:00"}},"parkingAddress":{"streetAddress":"Avenue du Beaulieu, 5","postalCode":1160,"city":"Auderghem \/ Oudergem","country":"Belgium","gpsCoordinates":{"latitude":50.814083,"longitude":4.414891}}},"cafeteriaFacility":{"contractor":"CIANO","isClosed":false,"cafeteriaOpeningHoursList":{"openingHours":{"daysOfWeek":[1,2,3,4,5],"startTime":"08:30","endTime":"16:30"}}},"canteenFacility":{"contractor":"CIANO","isClosed":false,"canteenOpeningHoursList":{"openingHours":{"daysOfWeek":[1,2,3,4,5],"startTime":"12:00","endTime":"14:15"}},"canteenMenu":{"soup":"Provençal soup with fish","meal1":"Net whiting fillet , Vichy carrots, mashed potatoes, cream with dill","meal1Kcal":472,"meal2":"Osso bucco of turkey and its gremolata, tagliatelle","meal2Kcal":541,"vegetarian":"(Fit@work) Slice of tofu, coconut sate sauce, wok vegetables, rice\n","vegetarianKcal":660}}},{"type":"OFFICES","code":"BU-9","name":"Beaulieu 9 (Espace Beaulieu)","photoLink":"BU-9.jpg","occupants":"ENV, OIB","hasSAS":false,"contactList":{"contacts":[{"name":"Réception","phone":"+32229 61387"},{"name":"OIB PROXIMITY TEAM BU-5","phone":"+32229 95583","email":"OIB-PROXIMITY-TEAM-BU-5@ec.europa.eu"}]},"buildingAddress":{"streetAddress":"Avenue du Beaulieu 9","postalCode":1160,"city":"Auderghem \/ Oudergem","country":"Belgium","gpsCoordinates":{"latitude":50.814405,"longitude":4.412967}},"parkingFacility":{"nonReservedCarPlaces":158,"serviceBicycles":0,"electricBicycles":0,"hasSAS":false,"parkingContact":{"phone":"+32229 61369"},"parkingAddress":{"streetAddress":"Avenue du Beaulieu, 9","postalCode":1160,"city":"Auderghem \/ Oudergem","country":"Belgium","gpsCoordinates":{"latitude":50.814139,"longitude":4.413088}}}},{"type":"OFFICES","code":"BU31","name":"Beaulieu 31","photoLink":"BU31.jpg","occupants":"CNECT, HR","hasSAS":false,"contactList":{"contacts":[{"name":"Réception","phone":"+32229 68665"},{"name":"OIB PROXIMITY TEAM BU31","phone":"+32229 95544","email":"OIB-PROXIMITY-TEAM-BU31@ec.europa.eu"}]},"buildingAddress":{"streetAddress":"Avenue de Beaulieu 31","postalCode":1160,"city":"Auderghem \/ Oudergem","country":"Belgium","gpsCoordinates":{"latitude":50.814278,"longitude":4.410593}},"buildingOpeningHoursList":{"openingHours":{"daysOfWeek":[1,2,3,4,5,8,9,10,11,12],"startTime":"07:15","endTime":"21:00"}},"parkingFacility":{"nonReservedCarPlaces":82,"serviceBicycles":0,"electricBicycles":0,"hasSAS":false,"parkingContact":{"phone":"+32229 94102"},"parkingOpeningHoursList":{"openingHours":{"daysOfWeek":[1,2,3,4,5,8,9,10,11,12],"startTime":"07:00","endTime":"20:00"}},"parkingAddress":{"streetAddress":"Avenue de Beaulieu, 31","postalCode":1160,"city":"Auderghem \/ Oudergem","country":"Belgium","gpsCoordinates":{"latitude":50.814139,"longitude":4.410633}}}},{"type":"OFFICES","code":"BU24","name":"Beaulieu 24  (Croissant)","photoLink":"BU24.jpg","occupants":"CLIMA","hasSAS":false,"contactList":{"contacts":[{"name":"Réception","phone":"+32229 74590"},{"name":"OIB PROXIMITY TEAM BU31","phone":"+32229 95544","email":"OIB-PROXIMITY-TEAM-BU31@ec.europa.eu"}]},"buildingAddress":{"streetAddress":"Avenue de Beaulieu 24","postalCode":1160,"city":"Auderghem \/ Oudergem","country":"Belgium","gpsCoordinates":{"latitude":50.814556,"longitude":4.408655}},"buildingOpeningHoursList":{"openingHours":{"daysOfWeek":[1,2,3,4,5,8,9,10,11,12],"startTime":"07:00","endTime":"20:00"}},"parkingFacility":{"nonReservedCarPlaces":99,"serviceBicycles":3,"electricBicycles":0,"hasSAS":false,"parkingContact":{"phone":"+32229 75059"},"parkingOpeningHoursList":{"openingHours":{"daysOfWeek":[1,2,3,4,5,8,9,10,11,12],"startTime":"07:00","endTime":"20:00"}},"parkingAddress":{"streetAddress":"Avenue de Beaulieu, 24","postalCode":1160,"city":"Auderghem \/ Oudergem","country":"Belgium","gpsCoordinates":{"latitude":50.814514,"longitude":4.409103}}},"showerFacility":{"showersMen":0,"showersWomen":0,"showersMixed":1,"location":"Floor 0"}},{"type":"OFFICES","code":"MADO","name":"Tour Madou","photoLink":"MADO.jpg","occupants":"COMP, IAS","hasSAS":false,"contactList":{"contacts":[{"name":"Réception","phone":"+32229 56004"},{"name":"OIB PROXIMITY TEAM MADO","phone":"+32229 95559","email":"OIB-PROXIMITY-TEAM-MADO@ec.europa.eu"}]},"buildingAddress":{"streetAddress":"Place Madou 1","postalCode":1210,"city":"Saint-Josse-Ten-Noode \/ Sint-Joost-Ten-Noode","country":"Belgium","gpsCoordinates":{"latitude":50.849406,"longitude":4.369612}},"buildingOpeningHoursList":{"openingHours":[{"daysOfWeek":[6,7,13,14],"startTime":"10:00","endTime":"20:00"},{"daysOfWeek":[1,2,3,4,5,8,9,10,11,12],"startTime":"06:00","endTime":"22:00"}]},"parkingFacility":{"nonReservedCarPlaces":360,"serviceBicycles":11,"electricBicycles":1,"hasSAS":true,"parkingContact":{"phone":"+32229 90835"},"parkingOpeningHoursList":{"openingHours":{"daysOfWeek":[1,2,3,4,5,8,9,10,11,12],"startTime":"07:00","endTime":"22:00"}},"parkingAddress":{"streetAddress":"Rue Leopold Lenders, 4","postalCode":1210,"city":"Saint-Josse-Ten-Noode \/ Sint-Joost-Ten-Noode","country":"Belgium","gpsCoordinates":{"latitude":50.849586,"longitude":4.370336}}},"showerFacility":{"showersMen":3,"showersWomen":3,"showersMixed":0,"location":"Floor -1"},"cafeteriaFacility":{"contractor":"CIANO","isClosed":false,"cafeteriaOpeningHoursList":{"openingHours":{"daysOfWeek":[1,2,3,4,5],"startTime":"08:30","endTime":"16:30"}}},"canteenFacility":{"contractor":"CIANO","isClosed":false,"canteenOpeningHoursList":{"openingHours":{"daysOfWeek":[1,2,3,4,5],"startTime":"12:00","endTime":"14:15"}},"canteenMenu":{"soup":"Provençal soup with fish","meal1":"Net whiting fillet , Vichy carrots, mashed potatoes, cream with dill","meal1Kcal":472,"meal2":"Osso bucco of turkey and its gremolata, tagliatelle","meal2Kcal":541,"vegetarian":"(Fit@work) Slice of tofu, coconut sate sauce, wok vegetables, rice\n","vegetarianKcal":660}}},{"type":"OFFICES","code":"COVE","name":"Covent Garden","photoLink":"COVE.jpg","occupants":"DIGIT","hasSAS":false,"contactList":{"contacts":[{"name":"Réception","phone":"+32229 95595"},{"name":"OIB PROXIMITY TEAM MADO","phone":"+32229 95559","email":"OIB-PROXIMITY-TEAM-MADO@ec.europa.eu"}]},"buildingAddress":{"streetAddress":"Place Rogier 16","postalCode":1210,"city":"Saint-Josse-Ten-Noode \/ Sint-Joost-Ten-Noode","country":"Belgium","gpsCoordinates":{"latitude":50.855994,"longitude":4.359816}},"buildingOpeningHoursList":{"openingHours":{"daysOfWeek":[1,2,3,4,5,8,9,10,11,12],"startTime":"06:00","endTime":"22:00"}},"parkingFacility":{"nonReservedCarPlaces":279,"serviceBicycles":3,"electricBicycles":0,"hasSAS":true,"parkingContact":{"phone":"+32229 75116"},"parkingOpeningHoursList":{"openingHours":{"daysOfWeek":[1,2,3,4,5,8,9,10,11,12],"startTime":"07:00","endTime":"20:00"}},"parkingAddress":{"streetAddress":"rue Marie Popelin (croisement avec rue du Brabant)","postalCode":1210,"city":"Saint-Josse-Ten-Noode \/ Sint-Joost-Ten-Noode","country":"Belgium","gpsCoordinates":{"latitude":50.856652,"longitude":4.360373}}},"showerFacility":{"showersMen":3,"showersWomen":3,"showersMixed":0,"location":"Floor -2"}},{"type":"OFFICES","code":"COV2","name":"Covent Garden 2","photoLink":"COVE2.jpg","occupants":"EASME, ERCEA, REA, RTD","hasSAS":false,"contactList":{"contacts":[{"name":"Réception","phone":"+32229 74449"},{"name":"OIB PROXIMITY TEAM MADO","phone":"+32229 95559","email":"OIB-PROXIMITY-TEAM-MADO@ec.europa.eu"}]},"buildingAddress":{"streetAddress":"Place Rogier 16","postalCode":1210,"city":"Saint-Josse-Ten-Noode \/ Sint-Joost-Ten-Noode","country":"Belgium","gpsCoordinates":{"latitude":50.855994,"longitude":4.359816}},"buildingOpeningHoursList":{"openingHours":{"daysOfWeek":[1,2,3,4,5,8,9,10,11,12],"startTime":"06:00","endTime":"22:00"}},"parkingFacility":{"nonReservedCarPlaces":279,"serviceBicycles":0,"electricBicycles":0,"hasSAS":true,"parkingContact":{"phone":"+32229 75116"},"parkingAddress":{"streetAddress":"rue Marie Popelin (croisement avec rue du Brabant)","postalCode":1210,"city":"Saint-Josse-Ten-Noode \/ Sint-Joost-Ten-Noode","country":"Belgium","gpsCoordinates":{"latitude":50.856652,"longitude":4.360373}}},"showerFacility":{"showersMen":0,"showersWomen":0,"showersMixed":3,"location":"Floor 0"},"cafeteriaFacility":{"contractor":"COMPASS","isClosed":false,"cafeteriaOpeningHoursList":{"openingHours":{"daysOfWeek":[1,2,3,4,5],"startTime":"09:30","endTime":"14:30"}}},"canteenFacility":{"contractor":"COMPASS","isClosed":false,"canteenOpeningHoursList":{"openingHours":{"daysOfWeek":[1,2,3,4,5],"startTime":"12:00","endTime":"14:15"}},"canteenMenu":{"soup":"Swet peppers soup","starter":"Canneloni with salmon gratinated","meal1":"(Fit@work) Chicken fillet, peppers sauce, green cabbage, grenaille potatoes","meal1Kcal":420,"meal2":"Dab fillet, pumpkin crème sauce, leeks,\n sweet potatoes","meal2Kcal":520,"vegetarian":"Green wheat indian style, mushrooms, tempeh","vegetarianKcal":440}}},{"type":"DATA CENTRE","code":"HOST","name":"Hosting Data","hasSAS":false,"buildingAddress":{"streetAddress":"Ritterweglaan 4-8","postalCode":1830,"city":"Machelen","country":"Belgium","gpsCoordinates":{"latitude":50.913407,"longitude":4.426178}}}]}}